[{"description": "Ausbildung zum/zur Fischwirt*in (m/w/d)", "location": [{"address": {"addressCountry": "DE", "addressLocality": "Bredstedt", "addressRegion": "Schleswig-Holstein", "postalCode": "25821", "streetAddress": "Rosenburger Weg 19a"}, "geo": {"latitude": 54.6241146, "longitude": 8.9794549}}], "additionalType": ["http://w3id.org/openeduhub/vocabs/locationType/D2eb8b66-7a56-4210-9f99-195fea13fe3b"], "name": "Niels Friedrichsen", "url": "https://www.arbeitsagentur.de/jobsuche/jobdetail/10000-1195212892-S"}, {"location": [{"address": {"addressCountry": "DE", "addressLocality": "Butjadingen", "addressRegion": "Niedersachsen", "postalCode": "26969", "streetAddress": "Hoddersdiek 26 a"}, "geo": {"latitude": 53.5799229, "longitude": 8.3641019}}], "additionalType": ["http://w3id.org/openeduhub/vocabs/locationType/D2eb8b66-7a56-4210-9f99-195fea13fe3b"], "name": "Lennart Wefer", "url": "https://www.arbeitsagentur.de/jobsuche/jobdetail/10000-1191951724-S"}, {"location": [{"address": {"addressCountry": "DE", "addressLocality": "T\u00f6nning", "addressRegion": "Schleswig-Holstein", "postalCode": "25832", "streetAddress": "Rathmann-Tetens-Str. 12"}, "geo": {"latitude": 54.3062463, "longitude": 8.9259682}}], "additionalType": ["http://w3id.org/openeduhub/vocabs/locationType/D2eb8b66-7a56-4210-9f99-195fea13fe3b"], "name": "Ted S\u00f6nnichsen", "url": "https://www.arbeitsagentur.de/jobsuche/jobdetail/10000-1191907743-S"}, {"location": [{"address": {"addressCountry": "DE", "addressLocality": "B\u00fcsum", "addressRegion": "Schleswig-Holstein", "postalCode": "25761", "streetAddress": "R\u00fcgendamm 12"}, "geo": {"latitude": 54.1393293, "longitude": 8.8667574}}], "additionalType": ["http://w3id.org/openeduhub/vocabs/locationType/D2eb8b66-7a56-4210-9f99-195fea13fe3b"], "name": "Andr\u00e9 Clau\u00dfen", "url": "https://www.arbeitsagentur.de/jobsuche/jobdetail/10000-1191704902-S"}, {"description": "Ausbildung z. Fischwirt/in 2023 (Cuxhaven - See)", "location": [{"address": {"addressCountry": "DE", "addressLocality": "Cuxhaven", "addressRegion": "Niedersachsen", "postalCode": "27472", "streetAddress": "Niedersachsenstr. 9"}, "geo": {"latitude": 53.8620991, "longitude": 8.7083418}}], "additionalType": ["http://w3id.org/openeduhub/vocabs/locationType/D2eb8b66-7a56-4210-9f99-195fea13fe3b"], "name": "Kutterfisch-Zentrale GmbH Fischverarbeitung", "url": "https://www.arbeitsagentur.de/jobsuche/jobdetail/10000-1190809329-S"}]