[{"description": "Ausbildung 2023", "location": [{"address": {"addressCountry": "DE", "addressLocality": "Einbeck", "addressRegion": "Niedersachsen", "postalCode": "37574", "streetAddress": "Hullerser Landstr. 12"}, "geo": {"latitude": 51.8176506, "longitude": 9.848012}}], "additionalType": ["http://w3id.org/openeduhub/vocabs/locationType/D2eb8b66-7a56-4210-9f99-195fea13fe3b"], "name": "Oppermann Mech. Gurt- und Bandweberei GmbH", "url": "https://www.arbeitsagentur.de/jobsuche/jobdetail/10000-1193831732-S"}, {"description": "Produktveredler - Textil (m/w/d)", "location": [{"address": {"addressCountry": "DE", "addressLocality": "Konradsreuth, Oberfranken", "addressRegion": "Bayern", "postalCode": "95176", "streetAddress": "M\u00fcnchberger Str. 46"}, "geo": {"latitude": 50.2658273, "longitude": 11.8399106}}], "additionalType": ["http://w3id.org/openeduhub/vocabs/locationType/D2eb8b66-7a56-4210-9f99-195fea13fe3b"], "name": "Willy Maisel GmbH", "url": "https://www.arbeitsagentur.de/jobsuche/jobdetail/10000-1191668798-S"}, {"location": [{"address": {"addressCountry": "DE", "addressLocality": "Stammbach", "addressRegion": "Bayern", "postalCode": "95236", "streetAddress": "Rathausstr. 18"}, "geo": {"latitude": 50.1443407, "longitude": 11.69384}}], "additionalType": ["http://w3id.org/openeduhub/vocabs/locationType/D2eb8b66-7a56-4210-9f99-195fea13fe3b"], "name": "E. Schoepf GmbH", "url": "https://www.arbeitsagentur.de/jobsuche/jobdetail/10000-1195212792-S"}, {"description": "Ausbildung 2024 Produktveredler Textil m/w/d", "location": [{"address": {"addressCountry": "DE", "addressLocality": "Selb", "addressRegion": "Bayern", "postalCode": "95100", "streetAddress": "Lohm\u00fchle 1"}, "geo": {"latitude": 50.180949, "longitude": 12.1387834}}], "additionalType": ["http://w3id.org/openeduhub/vocabs/locationType/D2eb8b66-7a56-4210-9f99-195fea13fe3b"], "name": "Textilveredlung Drechsel GmbH", "url": "https://www.arbeitsagentur.de/jobsuche/jobdetail/10000-1195206586-S"}, {"description": "Ausbildung zum Produktveredler (m/w/d)", "location": [{"address": {"addressCountry": "DE", "addressLocality": "Ebersbach-Neugersdorf", "addressRegion": "Sachsen", "postalCode": "02727", "streetAddress": "Nordstr. 2"}, "geo": {"latitude": 50.9883454, "longitude": 14.612982}}], "additionalType": ["http://w3id.org/openeduhub/vocabs/locationType/D2eb8b66-7a56-4210-9f99-195fea13fe3b"], "name": "Heytex Neugersdorf GmbH", "url": "https://www.arbeitsagentur.de/jobsuche/jobdetail/12964-JOBSOL26689-S"}, {"description": "Ausbildung - Produktveredler 2024 (w/m/d), Julius Zorn GmbH", "location": [{"address": {"addressCountry": "DE", "addressLocality": "Aichach an der Paar", "addressRegion": "Bayern", "postalCode": "86551", "streetAddress": "Juliusplatz 1"}, "geo": {"latitude": 48.4469234, "longitude": 11.1353522}}], "additionalType": ["http://w3id.org/openeduhub/vocabs/locationType/D2eb8b66-7a56-4210-9f99-195fea13fe3b"], "name": "Julius Zorn GmbH", "url": "https://www.arbeitsagentur.de/jobsuche/jobdetail/12811-1201425-S"}, {"description": "Ausbildung 2024 zum Produktveredler (Textil)", "location": [{"address": {"addressCountry": "DE", "addressLocality": "Bramsche, Hase", "addressRegion": "Niedersachsen", "postalCode": "49565", "streetAddress": "Maschstr. 2"}, "geo": {"latitude": 52.4121293, "longitude": 7.9821724}}], "additionalType": ["http://w3id.org/openeduhub/vocabs/locationType/D2eb8b66-7a56-4210-9f99-195fea13fe3b"], "name": "Sanders.eu GmbH", "url": "https://www.arbeitsagentur.de/jobsuche/jobdetail/10000-1195145711-S"}, {"location": [{"address": {"addressCountry": "DE", "addressLocality": "Burladingen", "addressRegion": "Baden-W\u00fcrttemberg", "postalCode": "72393", "streetAddress": "Eichhalde 15"}, "geo": {"latitude": 48.2915522, "longitude": 9.1120309}}], "additionalType": ["http://w3id.org/openeduhub/vocabs/locationType/D2eb8b66-7a56-4210-9f99-195fea13fe3b"], "name": "Dolinschek GmbH", "url": "https://www.arbeitsagentur.de/jobsuche/jobdetail/10000-1195129342-S"}, {"location": [{"address": {"addressCountry": "DE", "addressLocality": "Bamberg", "addressRegion": "Bayern", "postalCode": "96052", "streetAddress": "Laubanger 20"}, "geo": {"latitude": 49.9125115, "longitude": 10.8713273}}], "additionalType": ["http://w3id.org/openeduhub/vocabs/locationType/D2eb8b66-7a56-4210-9f99-195fea13fe3b"], "name": "Ofa Bamberg GmbH", "url": "https://www.arbeitsagentur.de/jobsuche/jobdetail/10000-1195124631-S"}, {"description": "Produktveredler (m/w/d) - F\u00e4rberei", "location": [{"address": {"addressCountry": "DE", "addressLocality": "Michelau in Oberfranken", "addressRegion": "Bayern", "postalCode": "96247", "streetAddress": "Marktzeulner Str. 13"}, "geo": {"latitude": 50.1670172, "longitude": 11.1535632}}], "additionalType": ["http://w3id.org/openeduhub/vocabs/locationType/D2eb8b66-7a56-4210-9f99-195fea13fe3b"], "name": "Weber Textilveredelungs-GmbH", "url": "https://www.arbeitsagentur.de/jobsuche/jobdetail/10000-1195122633-S"}, {"description": "Produktveredler (m/w/d) - F\u00e4rberei", "location": [{"address": {"addressCountry": "DE", "addressLocality": "Michelau in Oberfranken", "addressRegion": "Bayern", "postalCode": "96247", "streetAddress": "Marktzeulner Str. 13"}, "geo": {"latitude": 50.1670172, "longitude": 11.1535632}}], "additionalType": ["http://w3id.org/openeduhub/vocabs/locationType/D2eb8b66-7a56-4210-9f99-195fea13fe3b"], "name": "Weber Textilveredelungs-GmbH", "url": "https://www.arbeitsagentur.de/jobsuche/jobdetail/10000-1192050883-S"}, {"location": [{"address": {"addressCountry": "DE", "addressLocality": "M\u00fchltroff", "addressRegion": "Sachsen", "postalCode": "07919", "streetAddress": "Bahnhofstr. 21"}, "geo": {"latitude": 50.5404482, "longitude": 11.9360428}}], "additionalType": ["http://w3id.org/openeduhub/vocabs/locationType/D2eb8b66-7a56-4210-9f99-195fea13fe3b"], "name": "PONGS Technical Textiles GmbH", "url": "https://www.arbeitsagentur.de/jobsuche/jobdetail/10000-1195094152-S"}, {"description": "Ausbildung zum Produktveredler-Textil", "location": [{"address": {"addressCountry": "DE", "addressLocality": "Marktschorgast", "addressRegion": "Bayern", "postalCode": "95509", "streetAddress": "Bernecker Str. 8"}, "geo": {"latitude": 50.0895191, "longitude": 11.6526645}}], "additionalType": ["http://w3id.org/openeduhub/vocabs/locationType/D2eb8b66-7a56-4210-9f99-195fea13fe3b"], "name": "Vitrulan Textile Glass GmbH", "url": "https://www.arbeitsagentur.de/jobsuche/jobdetail/10000-1191079626-S"}, {"description": "Produktveredler/in - Textil m/w/d", "location": [{"address": {"addressCountry": "DE", "addressLocality": "Krefeld", "addressRegion": "Nordrhein-Westfalen", "postalCode": "47803", "streetAddress": "Industriestr. 56"}, "geo": {"latitude": 51.3433118, "longitude": 6.5475853}}], "additionalType": ["http://w3id.org/openeduhub/vocabs/locationType/D2eb8b66-7a56-4210-9f99-195fea13fe3b"], "name": "VERSEIDAG-INDUTEX GmbH", "url": "https://www.arbeitsagentur.de/jobsuche/jobdetail/10000-1194943511-S"}, {"description": "Produktveredler Textil m/w/d 2023", "location": [{"address": {"addressCountry": "DE", "addressLocality": "Helmbrechts, Oberfranken", "addressRegion": "Bayern", "postalCode": "95233", "streetAddress": "Orter Str. 6"}, "geo": {"latitude": 50.2182014, "longitude": 11.695218}}], "additionalType": ["http://w3id.org/openeduhub/vocabs/locationType/D2eb8b66-7a56-4210-9f99-195fea13fe3b"], "name": "V. FRAAS GmbH", "url": "https://www.arbeitsagentur.de/jobsuche/jobdetail/10000-1190242695-S"}, {"location": [{"address": {"addressCountry": "DE", "addressLocality": "Bitz, W\u00fcrttemberg", "addressRegion": "Baden-W\u00fcrttemberg", "postalCode": "72475", "streetAddress": "Ebinger Str. 15"}, "geo": {"latitude": 48.2425337, "longitude": 9.0874673}}], "additionalType": ["http://w3id.org/openeduhub/vocabs/locationType/D2eb8b66-7a56-4210-9f99-195fea13fe3b"], "name": "Bitex GmbH", "url": "https://www.arbeitsagentur.de/jobsuche/jobdetail/10000-1194958211-S"}, {"description": "Ausbildung zum Produktveredler-Textil", "location": [{"address": {"addressCountry": "DE", "addressLocality": "Marktschorgast", "addressRegion": "Bayern", "postalCode": "95509", "streetAddress": "Bernecker Str. 8"}, "geo": {"latitude": 50.0895191, "longitude": 11.6526645}}], "additionalType": ["http://w3id.org/openeduhub/vocabs/locationType/D2eb8b66-7a56-4210-9f99-195fea13fe3b"], "name": "Vitrulan Textile Glass GmbH", "url": "https://www.arbeitsagentur.de/jobsuche/jobdetail/10000-1194927567-S"}, {"description": "Ausbildung 2024: Produktveredler (m/w/d) Textil - Praktikum m\u00f6glich!", "location": [{"address": {"addressCountry": "DE", "addressLocality": "Gescher", "addressRegion": "Nordrhein-Westfalen", "postalCode": "48712", "streetAddress": "Stadtlohner Str. 71"}, "geo": {"latitude": 51.962697, "longitude": 6.9836994}}], "additionalType": ["http://w3id.org/openeduhub/vocabs/locationType/D2eb8b66-7a56-4210-9f99-195fea13fe3b"], "name": "ETV EING TEXTIL-VEREDLUNG GmbH & Co. KG", "url": "https://www.arbeitsagentur.de/jobsuche/jobdetail/10000-1194900106-S"}, {"location": [{"address": {"addressCountry": "DE", "addressLocality": "Niederfrohna", "addressRegion": "Sachsen", "postalCode": "09243", "streetAddress": "Limbacher Str. 28"}, "geo": {"latitude": 50.8746725, "longitude": 12.7474167}}], "additionalType": ["http://w3id.org/openeduhub/vocabs/locationType/D2eb8b66-7a56-4210-9f99-195fea13fe3b"], "name": "Pro4Tex GmbH", "url": "https://www.arbeitsagentur.de/jobsuche/jobdetail/10000-1191092295-S"}, {"description": "Ausbildung 2023: Produktveredler (m/w/d) Textil - Praktikum m\u00f6glich!", "location": [{"address": {"addressCountry": "DE", "addressLocality": "Gescher", "addressRegion": "Nordrhein-Westfalen", "postalCode": "48712", "streetAddress": "Stadtlohner Str. 71"}, "geo": {"latitude": 51.962697, "longitude": 6.9836994}}], "additionalType": ["http://w3id.org/openeduhub/vocabs/locationType/D2eb8b66-7a56-4210-9f99-195fea13fe3b"], "name": "ETV EING TEXTIL-VEREDLUNG GmbH & Co. KG", "url": "https://www.arbeitsagentur.de/jobsuche/jobdetail/10000-1190525260-S"}, {"location": [{"address": {"addressCountry": "DE", "addressLocality": "Fulda", "addressRegion": "Hessen", "postalCode": "36043", "streetAddress": "Frankfurter Str. 62"}, "geo": {"latitude": 50.5376947, "longitude": 9.6739657}}], "additionalType": ["http://w3id.org/openeduhub/vocabs/locationType/D2eb8b66-7a56-4210-9f99-195fea13fe3b"], "name": "Filzfabrik Fulda GmbH & Co. KG", "url": "https://www.arbeitsagentur.de/jobsuche/jobdetail/10000-1194703891-S"}, {"location": [{"address": {"addressCountry": "DE", "addressLocality": "Leutershausen, Mittelfranken", "addressRegion": "Bayern", "postalCode": "91578", "streetAddress": "Rammersdorfer Str. 8"}, "geo": {"latitude": 49.3015752, "longitude": 10.4139672}}], "additionalType": ["http://w3id.org/openeduhub/vocabs/locationType/D2eb8b66-7a56-4210-9f99-195fea13fe3b"], "name": "TVU Textilveredlungsunion GmbH", "url": "https://www.arbeitsagentur.de/jobsuche/jobdetail/10000-1194548431-S"}, {"description": "AUSBILDUNG 2023", "location": [{"address": {"addressCountry": "DE", "addressLocality": "M\u00f6ssingen", "addressRegion": "Baden-W\u00fcrttemberg", "postalCode": "72116", "streetAddress": "Gustav-Sch\u00f6ller-Str. 10"}, "geo": {"latitude": 48.4151276, "longitude": 9.1136043}}], "additionalType": ["http://w3id.org/openeduhub/vocabs/locationType/D2eb8b66-7a56-4210-9f99-195fea13fe3b"], "name": "Textilveredelung Keller GmbH", "url": "https://www.arbeitsagentur.de/jobsuche/jobdetail/10000-1194524683-S"}, {"description": "AUSBILDUNG 2024", "location": [{"address": {"addressCountry": "DE", "addressLocality": "M\u00f6ssingen", "addressRegion": "Baden-W\u00fcrttemberg", "postalCode": "72116", "streetAddress": "Gustav-Sch\u00f6ller-Str. 10"}, "geo": {"latitude": 48.4151276, "longitude": 9.1136043}}], "additionalType": ["http://w3id.org/openeduhub/vocabs/locationType/D2eb8b66-7a56-4210-9f99-195fea13fe3b"], "name": "Textilveredelung Keller GmbH", "url": "https://www.arbeitsagentur.de/jobsuche/jobdetail/10000-1194524537-S"}, {"location": [{"address": {"addressCountry": "DE", "addressLocality": "Burladingen", "addressRegion": "Baden-W\u00fcrttemberg", "postalCode": "72393", "streetAddress": "Eichhalde 15"}, "geo": {"latitude": 48.2915522, "longitude": 9.1120309}}], "additionalType": ["http://w3id.org/openeduhub/vocabs/locationType/D2eb8b66-7a56-4210-9f99-195fea13fe3b"], "name": "Dolinschek GmbH", "url": "https://www.arbeitsagentur.de/jobsuche/jobdetail/10000-1194418623-S"}, {"description": "Azubi Produktveredler m/w/d", "location": [{"address": {"addressCountry": "DE", "addressLocality": "Hof, Saale", "addressRegion": "Bayern", "postalCode": "95028", "streetAddress": "Fabrikzeile 21"}, "geo": {"latitude": 50.3176707, "longitude": 11.9218562}}], "additionalType": ["http://w3id.org/openeduhub/vocabs/locationType/D2eb8b66-7a56-4210-9f99-195fea13fe3b"], "name": "Hoftex Group AG", "url": "https://www.arbeitsagentur.de/jobsuche/jobdetail/10000-1191973070-S"}, {"description": "Produktveredler/in mit der Spezialisierung Textil (m/w/d)", "location": [{"address": {"addressCountry": "DE", "addressLocality": "Penig", "addressRegion": "Sachsen", "postalCode": "09322", "streetAddress": "Am Bahnhof 12"}, "geo": {"latitude": 50.9729441, "longitude": 12.6925846}}], "additionalType": ["http://w3id.org/openeduhub/vocabs/locationType/D2eb8b66-7a56-4210-9f99-195fea13fe3b"], "name": "Textildruckerei Lunzenau GmbH", "url": "https://www.arbeitsagentur.de/jobsuche/jobdetail/10000-1191270892-S"}, {"description": "Ausbildung Produktveredler (m/w/d)", "location": [{"address": {"addressCountry": "DE", "addressLocality": "Zeulenroda-Triebes", "addressRegion": "Th\u00fcringen", "postalCode": "07937", "streetAddress": "Triebeser Str. 16"}, "geo": {"latitude": 50.6643855, "longitude": 11.9962562}}], "additionalType": ["http://w3id.org/openeduhub/vocabs/locationType/D2eb8b66-7a56-4210-9f99-195fea13fe3b"], "name": "Bauerfeind AG", "url": "https://www.arbeitsagentur.de/jobsuche/jobdetail/10000-1186159414-S"}, {"description": "AUSBILDUNG 2023 zum Produktveredler - Textil (m/w/d)", "location": [{"address": {"addressCountry": "DE", "addressLocality": "Bayreuth", "addressRegion": "Bayern", "postalCode": "95447", "streetAddress": "Ludwig-Thoma-Str. 9"}, "geo": {"latitude": 49.9354357, "longitude": 11.5699993}}], "additionalType": ["http://w3id.org/openeduhub/vocabs/locationType/D2eb8b66-7a56-4210-9f99-195fea13fe3b"], "name": "Blaha Textilveredelung - Bayreuth GmbH", "url": "https://www.arbeitsagentur.de/jobsuche/jobdetail/10000-1193253066-S"}, {"description": "Ausbildung 2024", "location": [{"address": {"addressCountry": "DE", "addressLocality": "Rottenburg am Neckar", "addressRegion": "Baden-W\u00fcrttemberg", "postalCode": "72108", "streetAddress": "Hammerwasen 15"}, "geo": {"latitude": 48.4668511, "longitude": 8.9179329}}], "additionalType": ["http://w3id.org/openeduhub/vocabs/locationType/D2eb8b66-7a56-4210-9f99-195fea13fe3b"], "name": "Kraus Textilveredlung GmbH", "url": "https://www.arbeitsagentur.de/jobsuche/jobdetail/10000-1192781466-S"}, {"description": "'Stoff geben!' - Ausbildung 2023 bei uns!", "location": [{"address": {"addressCountry": "DE", "addressLocality": "Grefrath, Niederrhein", "addressRegion": "Nordrhein-Westfalen", "postalCode": "47929", "streetAddress": "An der Pl\u00fcschweberei 50"}, "geo": {"latitude": 51.3400945, "longitude": 6.3335621}}], "additionalType": ["http://w3id.org/openeduhub/vocabs/locationType/D2eb8b66-7a56-4210-9f99-195fea13fe3b"], "name": "NOVA Textil-Beschichtung GmbH", "url": "https://www.arbeitsagentur.de/jobsuche/jobdetail/10000-1192495768-S"}, {"description": "Produktveredler/in - Textil", "location": [{"address": {"addressCountry": "DE", "addressLocality": "Hartmannsgr\u00fcn bei Auerbach, Vogtland", "addressRegion": "Sachsen", "postalCode": "08233", "streetAddress": "Zum Bahndamm 11"}, "geo": {"latitude": 50.5599565, "longitude": 12.279699}}], "additionalType": ["http://w3id.org/openeduhub/vocabs/locationType/D2eb8b66-7a56-4210-9f99-195fea13fe3b"], "name": "Kunz-Textil GmbH Textilveredlung", "url": "https://www.arbeitsagentur.de/jobsuche/jobdetail/10000-1192035191-S"}, {"location": [{"address": {"addressCountry": "DE", "addressLocality": "Burladingen", "addressRegion": "Baden-W\u00fcrttemberg", "postalCode": "72393", "streetAddress": "Josef-Mayer-Str. 31"}, "geo": {"latitude": 48.2897612, "longitude": 9.1060157}}], "additionalType": ["http://w3id.org/openeduhub/vocabs/locationType/D2eb8b66-7a56-4210-9f99-195fea13fe3b"], "name": "TRIGEMA Inh. W. Grupp e.K.", "url": "https://www.arbeitsagentur.de/jobsuche/jobdetail/10000-1191870152-S"}, {"description": "Produktveredler - Textil (m/w/d)", "location": [{"address": {"addressCountry": "DE", "addressLocality": "Dresden", "addressRegion": "Sachsen", "postalCode": "01237", "streetAddress": "Breitscheidstr. 78"}, "geo": {"latitude": 51.0106492, "longitude": 13.8128368}}], "additionalType": ["http://w3id.org/openeduhub/vocabs/locationType/D2eb8b66-7a56-4210-9f99-195fea13fe3b"], "name": "Dresdner Gardinen- und Spitzenmanufaktur M. & S. Schr\u00f6der GmbH & Co. KG", "url": "https://www.arbeitsagentur.de/jobsuche/jobdetail/10000-1191755538-S"}, {"description": "Ausbildung Produktveredler/in (m/w/d)", "location": [{"address": {"addressCountry": "DE", "addressLocality": "Gutach im Breisgau", "addressRegion": "Baden-W\u00fcrttemberg", "postalCode": "79261", "streetAddress": "Landstrasse 1"}, "geo": {"latitude": 48.1129588, "longitude": 7.9837546}}], "additionalType": ["http://w3id.org/openeduhub/vocabs/locationType/D2eb8b66-7a56-4210-9f99-195fea13fe3b"], "name": "G\u00fctermann GmbH", "url": "https://www.arbeitsagentur.de/jobsuche/jobdetail/10000-1191508669-S"}, {"description": "Ausbildung 2023 zum Produktveredler (Textil)", "location": [{"address": {"addressCountry": "DE", "addressLocality": "Bramsche, Hase", "addressRegion": "Niedersachsen", "postalCode": "49565", "streetAddress": "Maschstr. 2"}, "geo": {"latitude": 52.4121293, "longitude": 7.9821724}}], "additionalType": ["http://w3id.org/openeduhub/vocabs/locationType/D2eb8b66-7a56-4210-9f99-195fea13fe3b"], "name": "Sanders.eu GmbH", "url": "https://www.arbeitsagentur.de/jobsuche/jobdetail/10000-1191493503-S"}, {"description": "Ausbildung zum Produktveredler Textil (w/m/d) f\u00fcr 2023", "location": [{"address": {"addressCountry": "DE", "addressLocality": "Putzbrunn", "addressRegion": "Bayern", "postalCode": "85640", "streetAddress": "Hermann-Oberth-Str. 22"}, "geo": {"latitude": 48.0742176, "longitude": 11.7238781}}], "additionalType": ["http://w3id.org/openeduhub/vocabs/locationType/D2eb8b66-7a56-4210-9f99-195fea13fe3b"], "name": "W. L. Gore & Associates GmbH", "url": "https://www.arbeitsagentur.de/jobsuche/jobdetail/10000-1191492524-S"}, {"location": [{"address": {"addressCountry": "DE", "addressLocality": "Sehmatal-Cranzahl", "addressRegion": "Sachsen", "postalCode": "09465", "streetAddress": "Fabrikstr. 6"}, "geo": {"latitude": 50.5149851, "longitude": 12.9967634}}], "additionalType": ["http://w3id.org/openeduhub/vocabs/locationType/D2eb8b66-7a56-4210-9f99-195fea13fe3b"], "name": "Textilveredlung Erzgebirge GmbH & Co.KG", "url": "https://www.arbeitsagentur.de/jobsuche/jobdetail/10000-1191481228-S"}, {"location": [{"address": {"addressCountry": "DE", "addressLocality": "Bitz, W\u00fcrttemberg", "addressRegion": "Baden-W\u00fcrttemberg", "postalCode": "72475", "streetAddress": "Ebinger Str. 15"}, "geo": {"latitude": 48.2425337, "longitude": 9.0874673}}], "additionalType": ["http://w3id.org/openeduhub/vocabs/locationType/D2eb8b66-7a56-4210-9f99-195fea13fe3b"], "name": "Bitex GmbH", "url": "https://www.arbeitsagentur.de/jobsuche/jobdetail/10000-1191439896-S"}, {"description": "Ausbildung zum Produktveredler (m/w/d) 2023", "location": [{"address": {"addressCountry": "DE", "addressLocality": "Leutersdorf, Oberlausitz", "addressRegion": "Sachsen", "postalCode": "02794", "streetAddress": "Weberstr. 21"}, "geo": {"latitude": 50.9448749, "longitude": 14.683545}}], "additionalType": ["http://w3id.org/openeduhub/vocabs/locationType/D2eb8b66-7a56-4210-9f99-195fea13fe3b"], "name": "C. F. Weber GmbH", "url": "https://www.arbeitsagentur.de/jobsuche/jobdetail/10000-1191161246-S"}, {"description": "Ausbildung Produktveredler Textil (m/w/d)", "location": [{"address": {"addressCountry": "DE", "addressLocality": "Schweinfurt", "addressRegion": "Bayern", "postalCode": "97424", "streetAddress": "Dublinstr. 2"}, "geo": {"latitude": 50.0119329, "longitude": 10.2109627}}], "additionalType": ["http://w3id.org/openeduhub/vocabs/locationType/D2eb8b66-7a56-4210-9f99-195fea13fe3b"], "name": "P.A.C. GmbH", "url": "https://www.arbeitsagentur.de/jobsuche/jobdetail/10000-1191076887-S"}, {"description": "Ausbildung zum/zur Produktveredler/innen \u2011 Textil im Labor", "location": [{"address": {"addressCountry": "DE", "addressLocality": "Albstadt, W\u00fcrttemberg", "addressRegion": "Baden-W\u00fcrttemberg", "postalCode": "72461", "streetAddress": "Stadionstr. 75-77"}, "geo": {"latitude": 48.2510665, "longitude": 8.9968596}}], "additionalType": ["http://w3id.org/openeduhub/vocabs/locationType/D2eb8b66-7a56-4210-9f99-195fea13fe3b"], "name": "Carl Meiser GmbH & Co KG Trikotwarenfabrik", "url": "https://www.arbeitsagentur.de/jobsuche/jobdetail/10000-1191026544-S"}, {"description": "2023", "location": [{"address": {"addressCountry": "DE", "addressLocality": "Forst (Lausitz)", "addressRegion": "Brandenburg", "postalCode": "03149", "streetAddress": "Inselstr. 30-31"}, "geo": {"latitude": 51.7521042, "longitude": 14.6506645}}], "additionalType": ["http://w3id.org/openeduhub/vocabs/locationType/D2eb8b66-7a56-4210-9f99-195fea13fe3b"], "name": "Spinnerei Forst GmbH", "url": "https://www.arbeitsagentur.de/jobsuche/jobdetail/10000-1191010183-S"}, {"description": "Ausbildung 2023 - Praktikum m\u00f6glich", "location": [{"address": {"addressCountry": "DE", "addressLocality": "M\u00f6nchengladbach", "addressRegion": "Nordrhein-Westfalen", "postalCode": "41239", "streetAddress": "Bolksbuscher Str. 27"}, "geo": {"latitude": 51.1651511, "longitude": 6.4274486}}], "additionalType": ["http://w3id.org/openeduhub/vocabs/locationType/D2eb8b66-7a56-4210-9f99-195fea13fe3b"], "name": "Junkers & M\u00fcllers GmbH", "url": "https://www.arbeitsagentur.de/jobsuche/jobdetail/10000-1190960423-S"}, {"location": [{"address": {"addressCountry": "DE", "addressLocality": "Treuen, Vogtland", "addressRegion": "Sachsen", "postalCode": "08233", "streetAddress": "Bahnhofstr. 46-48"}, "geo": {"latitude": 50.5462268, "longitude": 12.3005246}}], "additionalType": ["http://w3id.org/openeduhub/vocabs/locationType/D2eb8b66-7a56-4210-9f99-195fea13fe3b"], "name": "Vowalon Beschichtung GmbH", "url": "https://www.arbeitsagentur.de/jobsuche/jobdetail/10000-1190856423-S"}, {"description": "** Ausbildung 2023**", "location": [{"address": {"addressCountry": "DE", "addressLocality": "Bramsche, Hase", "addressRegion": "Niedersachsen", "postalCode": "49565", "streetAddress": "Heywinkelstr. 1"}, "geo": {"latitude": 52.4044341, "longitude": 8.0610407}}], "additionalType": ["http://w3id.org/openeduhub/vocabs/locationType/D2eb8b66-7a56-4210-9f99-195fea13fe3b"], "name": "Heytex Bramsche GmbH", "url": "https://www.arbeitsagentur.de/jobsuche/jobdetail/10000-1190816842-S"}, {"description": "Produktveredler/in - Textil m/w/d", "location": [{"address": {"addressCountry": "DE", "addressLocality": "Krefeld", "addressRegion": "Nordrhein-Westfalen", "postalCode": "47803", "streetAddress": "Industriestr. 56"}, "geo": {"latitude": 51.3433118, "longitude": 6.5475853}}], "additionalType": ["http://w3id.org/openeduhub/vocabs/locationType/D2eb8b66-7a56-4210-9f99-195fea13fe3b"], "name": "VERSEIDAG-INDUTEX GmbH", "url": "https://www.arbeitsagentur.de/jobsuche/jobdetail/10000-1190771522-S"}, {"description": "* 2023*", "location": [{"address": {"addressCountry": "DE", "addressLocality": "Ebhausen", "addressRegion": "Baden-W\u00fcrttemberg", "postalCode": "72224", "streetAddress": "Nagolder Str. 52"}, "geo": {"latitude": 48.581211, "longitude": 8.6770519}}], "additionalType": ["http://w3id.org/openeduhub/vocabs/locationType/D2eb8b66-7a56-4210-9f99-195fea13fe3b"], "name": "INOBELT GmbH", "url": "https://www.arbeitsagentur.de/jobsuche/jobdetail/10000-1190654099-S"}, {"description": "Produktveredler (m/w/d)Textil", "location": [{"address": {"addressCountry": "DE", "addressLocality": "Heinsdorfergrund", "addressRegion": "Sachsen", "postalCode": "08468", "streetAddress": "Gewerbering 1"}, "geo": {"latitude": 50.6022471, "longitude": 12.3210549}}], "additionalType": ["http://w3id.org/openeduhub/vocabs/locationType/D2eb8b66-7a56-4210-9f99-195fea13fe3b"], "name": "C.H. M\u00fcller GmbH", "url": "https://www.arbeitsagentur.de/jobsuche/jobdetail/10000-1190553512-S"}, {"description": "Produktveredler - Textil (m/w/d) 2023", "location": [{"address": {"addressCountry": "DE", "addressLocality": "Helmbrechts, Oberfranken", "addressRegion": "Bayern", "postalCode": "95233", "streetAddress": "August-Wagner-Str. 1"}, "geo": {"latitude": 50.2400424, "longitude": 11.7215576}}], "additionalType": ["http://w3id.org/openeduhub/vocabs/locationType/D2eb8b66-7a56-4210-9f99-195fea13fe3b"], "name": "J.G.Knopf's Sohn GmbH&Co KG", "url": "https://www.arbeitsagentur.de/jobsuche/jobdetail/10000-1190158295-S"}, {"description": "AUSBILDUNGSPLATZ ZUM PRODUKTVEREDLER TEXTIL (M/W/D)", "location": [{"address": {"addressCountry": "DE", "addressLocality": "Sindelfingen", "addressRegion": "Baden-W\u00fcrttemberg", "postalCode": "71063", "streetAddress": "Fron\u00e4ckerstr. 50"}, "geo": {"latitude": 48.7102666, "longitude": 8.9826676}}], "additionalType": ["http://w3id.org/openeduhub/vocabs/locationType/D2eb8b66-7a56-4210-9f99-195fea13fe3b"], "name": "01 Zweigart & Sawitzki GmbH & Co.KG", "url": "https://www.arbeitsagentur.de/jobsuche/jobdetail/10000-1190097696-S"}, {"description": "Ausbildung 2023", "location": [{"address": {"addressCountry": "DE", "addressLocality": "Augsburg, Bayern", "addressRegion": "Bayern", "postalCode": "86199", "streetAddress": "Fabrikstr. 11"}, "geo": {"latitude": 48.3425879, "longitude": 10.8641652}}], "additionalType": ["http://w3id.org/openeduhub/vocabs/locationType/D2eb8b66-7a56-4210-9f99-195fea13fe3b"], "name": "Amann & S\u00f6hne GmbH & Co. KG", "url": "https://www.arbeitsagentur.de/jobsuche/jobdetail/10000-1190012431-S"}, {"description": "Produktveredler (m/w/d) Textil", "location": [{"address": {"addressCountry": "DE", "addressLocality": "Dietenheim, Iller", "addressRegion": "Baden-W\u00fcrttemberg", "postalCode": "89165", "streetAddress": "K\u00f6nigstr. 34"}, "geo": {"latitude": 48.208811, "longitude": 10.0711208}}], "additionalType": ["http://w3id.org/openeduhub/vocabs/locationType/D2eb8b66-7a56-4210-9f99-195fea13fe3b"], "name": "Gebr. Otto Baumwollfeinzwirn. GmbH & Co. KG", "url": "https://www.arbeitsagentur.de/jobsuche/jobdetail/10000-1188995466-S"}]