[{"description": "(m/w/d)", "location": [{"address": {"addressCountry": "DE", "addressLocality": "L\u00fcgde", "addressRegion": "Nordrhein-Westfalen", "postalCode": "32676", "streetAddress": "Annenweg 7"}, "geo": {"latitude": 51.9481794, "longitude": 9.2438726}}], "additionalType": ["http://w3id.org/openeduhub/vocabs/locationType/D2eb8b66-7a56-4210-9f99-195fea13fe3b"], "name": "Eduard Stumpe Bauunternehmen GmbH", "url": "https://www.arbeitsagentur.de/jobsuche/jobdetail/10000-1195267312-S"}, {"description": "Ausbildung Maurer (m/w/d) - 2024", "location": [{"address": {"addressCountry": "DE", "addressLocality": "Roding, Regen", "addressRegion": "Bayern", "postalCode": "93426", "streetAddress": "Johann-Ettl-Str. 7"}, "geo": {"latitude": 49.2103134, "longitude": 12.5057229}}], "additionalType": ["http://w3id.org/openeduhub/vocabs/locationType/D2eb8b66-7a56-4210-9f99-195fea13fe3b"], "name": "Johann Feldbauer Bau-GmbH", "url": "https://www.arbeitsagentur.de/jobsuche/jobdetail/10000-1195267195-S"}, {"description": "Auszubildende/r Maurer/in 2024 -Praktikum m\u00f6glich-", "location": [{"address": {"addressCountry": "DE", "addressLocality": "Isselburg", "addressRegion": "Nordrhein-Westfalen", "postalCode": "46419", "streetAddress": "Dekkers Waide 7"}, "geo": {"latitude": 51.817359, "longitude": 6.4451557}}], "additionalType": ["http://w3id.org/openeduhub/vocabs/locationType/D2eb8b66-7a56-4210-9f99-195fea13fe3b"], "name": "Harry Lehmann Bauunternehmen", "url": "https://www.arbeitsagentur.de/jobsuche/jobdetail/10000-1195264676-S"}, {"description": "Ausbildung 2024", "location": [{"address": {"addressCountry": "DE", "addressLocality": "Altenberge, Westfalen", "addressRegion": "Nordrhein-Westfalen", "postalCode": "48341", "streetAddress": "Siemensstr. 48"}, "geo": {"latitude": 52.0367207, "longitude": 7.4522867}}], "additionalType": ["http://w3id.org/openeduhub/vocabs/locationType/D2eb8b66-7a56-4210-9f99-195fea13fe3b"], "name": "M. Laurenz GmbH", "url": "https://www.arbeitsagentur.de/jobsuche/jobdetail/10000-1195262905-S"}, {"location": [{"address": {"addressCountry": "DE", "addressLocality": "Freilassing", "addressRegion": "Bayern", "postalCode": "83395", "streetAddress": "Traunsteiner Str. 21"}, "geo": {"latitude": 47.8243226, "longitude": 12.9635489}}], "additionalType": ["http://w3id.org/openeduhub/vocabs/locationType/D2eb8b66-7a56-4210-9f99-195fea13fe3b"], "name": "Max Aicher Bau GmbH & Co. KG", "url": "https://www.arbeitsagentur.de/jobsuche/jobdetail/10000-1195256436-S"}, {"description": "Ausbildung 2023", "location": [{"address": {"addressCountry": "DE", "addressLocality": "Hermannsburg", "addressRegion": "Niedersachsen", "postalCode": "29320", "streetAddress": "Windm\u00fchlenweg 8"}, "geo": {"latitude": 52.836528, "longitude": 10.0823751}}], "additionalType": ["http://w3id.org/openeduhub/vocabs/locationType/D2eb8b66-7a56-4210-9f99-195fea13fe3b"], "name": "Baugewerbe Yavsan Inh. Cengiz Yavsan", "url": "https://www.arbeitsagentur.de/jobsuche/jobdetail/10000-1195255861-S"}, {"description": "Ausbildung 2024", "location": [{"address": {"addressCountry": "DE", "addressLocality": "Hermannsburg", "addressRegion": "Niedersachsen", "postalCode": "29320", "streetAddress": "Windm\u00fchlenweg 8"}, "geo": {"latitude": 52.836528, "longitude": 10.0823751}}], "additionalType": ["http://w3id.org/openeduhub/vocabs/locationType/D2eb8b66-7a56-4210-9f99-195fea13fe3b"], "name": "Baugewerbe Yavsan Inh. Cengiz Yavsan", "url": "https://www.arbeitsagentur.de/jobsuche/jobdetail/10000-1195255462-S"}, {"description": "AUSBILDUNG 2024", "location": [{"address": {"addressCountry": "DE", "addressLocality": "Frankenhardt", "addressRegion": "Baden-W\u00fcrttemberg", "postalCode": "74586", "streetAddress": "Mainkling 38"}, "geo": {"latitude": 49.0584729, "longitude": 10.007147}}], "additionalType": ["http://w3id.org/openeduhub/vocabs/locationType/D2eb8b66-7a56-4210-9f99-195fea13fe3b"], "name": "M. Schumann Baugesellschaft mbH", "url": "https://www.arbeitsagentur.de/jobsuche/jobdetail/10000-1195253953-S"}, {"description": "Ausbildungsbeginn 01.08.2024 oder 01.09.2024", "location": [{"address": {"addressCountry": "DE", "addressLocality": "Seesen, Harz", "addressRegion": "Niedersachsen", "postalCode": "38723", "streetAddress": "Am Wiesenberg 12"}, "geo": {"latitude": 51.9183675, "longitude": 10.1158259}}], "additionalType": ["http://w3id.org/openeduhub/vocabs/locationType/D2eb8b66-7a56-4210-9f99-195fea13fe3b"], "name": "Frank Giesecke Bau + Planungs GmbH", "url": "https://www.arbeitsagentur.de/jobsuche/jobdetail/10000-1195253732-S"}, {"description": "Ausbildung 2024", "location": [{"address": {"addressCountry": "DE", "addressLocality": "Hungen", "addressRegion": "Hessen", "postalCode": "35410", "streetAddress": "Schottener Str. 31"}, "geo": {"latitude": 50.4757333, "longitude": 8.9155183}}], "additionalType": ["http://w3id.org/openeduhub/vocabs/locationType/D2eb8b66-7a56-4210-9f99-195fea13fe3b"], "name": "Kre\u00df & Gr\u00fcn GmbH Bauunternehmen", "url": "https://www.arbeitsagentur.de/jobsuche/jobdetail/10000-1195253310-S"}, {"description": "Ausbildung zum Maurer (m/w/d) / Praktikum m\u00f6glich", "location": [{"address": {"addressCountry": "DE", "addressLocality": "Duisburg", "addressRegion": "Nordrhein-Westfalen", "postalCode": "47228", "streetAddress": "Mausegatt 50"}, "geo": {"latitude": 51.4214601, "longitude": 6.6865082}}], "additionalType": ["http://w3id.org/openeduhub/vocabs/locationType/D2eb8b66-7a56-4210-9f99-195fea13fe3b"], "name": "Michael Schmidt Bauunternehmen Hochbau", "url": "https://www.arbeitsagentur.de/jobsuche/jobdetail/10000-1193376933-S"}, {"description": "Auszubildende (m/w/d) zum Maurer f\u00fcr die Niederlassung Frankfurt", "location": [{"address": {"addressCountry": "DE", "addressLocality": "Raunheim", "addressRegion": "Hessen", "postalCode": "65479", "streetAddress": "Am Prime-Parc 1"}, "geo": {"latitude": 50.0154391, "longitude": 8.4597634}}], "additionalType": ["http://w3id.org/openeduhub/vocabs/locationType/D2eb8b66-7a56-4210-9f99-195fea13fe3b"], "name": "Implenia Holding GmbH", "url": "https://www.arbeitsagentur.de/jobsuche/jobdetail/10000-1195247985-S"}, {"description": "Wir bauen f\u00fcr unsere Kunden - du auch?", "location": [{"address": {"addressCountry": "DE", "addressLocality": "Irrhausen", "addressRegion": "Rheinland-Pfalz", "postalCode": "54689", "streetAddress": "Hauptstr. 27"}, "geo": {"latitude": 50.0814573, "longitude": 6.2169937}}], "additionalType": ["http://w3id.org/openeduhub/vocabs/locationType/D2eb8b66-7a56-4210-9f99-195fea13fe3b"], "name": "Weiland HTS GmbH", "url": "https://www.arbeitsagentur.de/jobsuche/jobdetail/10000-1195246495-S"}, {"description": "Ausbildung 2024 - Praktikum m\u00f6glich", "location": [{"address": {"addressCountry": "DE", "addressLocality": "Lennestadt", "addressRegion": "Nordrhein-Westfalen", "postalCode": "57368", "streetAddress": "Olper Str. 3"}, "geo": {"latitude": 51.1099286, "longitude": 8.0685521}}], "additionalType": ["http://w3id.org/openeduhub/vocabs/locationType/D2eb8b66-7a56-4210-9f99-195fea13fe3b"], "name": "Hubert Mees GmbH Bauunternehmung", "url": "https://www.arbeitsagentur.de/jobsuche/jobdetail/10000-1195245461-S"}, {"description": "Maurer (m/w/d) Ausbildungsstelle 2024", "location": [{"address": {"addressCountry": "DE", "addressLocality": "Bad Wurzach", "addressRegion": "Baden-W\u00fcrttemberg", "postalCode": "88410", "streetAddress": "Falkenblick 5"}, "geo": {"latitude": 47.9710408, "longitude": 9.9045983}}], "additionalType": ["http://w3id.org/openeduhub/vocabs/locationType/D2eb8b66-7a56-4210-9f99-195fea13fe3b"], "name": "DANGEL BAU GMBH", "url": "https://www.arbeitsagentur.de/jobsuche/jobdetail/10000-1195245111-S"}, {"location": [{"address": {"addressCountry": "DE", "addressLocality": "Naundorf bei Schlieben", "addressRegion": "Brandenburg", "postalCode": "04936", "streetAddress": "Dorfstr. 17"}, "geo": {"latitude": 51.7359233, "longitude": 13.4400312}}], "additionalType": ["http://w3id.org/openeduhub/vocabs/locationType/D2eb8b66-7a56-4210-9f99-195fea13fe3b"], "name": "Kramer Bauunternehmung GmbH", "url": "https://www.arbeitsagentur.de/jobsuche/jobdetail/10000-1195243695-S"}, {"description": "Maurerhandwerk lernen! Ausbildung 2023", "location": [{"address": {"addressCountry": "DE", "addressLocality": "Neubrandenburg, Mecklenburg", "addressRegion": "Mecklenburg-Vorpommern", "postalCode": "17034", "streetAddress": "Ihlenfelder Str. 119"}, "geo": {"latitude": 53.5747375, "longitude": 13.2903971}}], "additionalType": ["http://w3id.org/openeduhub/vocabs/locationType/D2eb8b66-7a56-4210-9f99-195fea13fe3b"], "name": "Bauunternehmen Schwank GmbH", "url": "https://www.arbeitsagentur.de/jobsuche/jobdetail/10000-1195242103-S"}, {"description": "Ausbildung 2024", "location": [{"address": {"addressCountry": "DE", "addressLocality": "Nordwalde", "addressRegion": "Nordrhein-Westfalen", "postalCode": "48356", "streetAddress": "Gildestr. 18"}, "geo": {"latitude": 52.0793184, "longitude": 7.483872}}], "additionalType": ["http://w3id.org/openeduhub/vocabs/locationType/D2eb8b66-7a56-4210-9f99-195fea13fe3b"], "name": "Beckonert Bau GmbH & Co. KG", "url": "https://www.arbeitsagentur.de/jobsuche/jobdetail/10000-1195238909-S"}, {"location": [{"address": {"addressCountry": "DE", "addressLocality": "Zeven", "addressRegion": "Niedersachsen", "postalCode": "27404", "streetAddress": "Am Brink 8"}, "geo": {"latitude": 53.3183602, "longitude": 9.2734486}}], "additionalType": ["http://w3id.org/openeduhub/vocabs/locationType/D2eb8b66-7a56-4210-9f99-195fea13fe3b"], "name": "W\u00fclpern Bau GmbH", "url": "https://www.arbeitsagentur.de/jobsuche/jobdetail/10000-1195238846-S"}, {"description": "Ausbildung 2024", "location": [{"address": {"addressCountry": "DE", "addressLocality": "Ochtrup", "addressRegion": "Nordrhein-Westfalen", "postalCode": "48607", "streetAddress": "Deipenbrook 13"}, "geo": {"latitude": 52.2051993, "longitude": 7.2098354}}], "additionalType": ["http://w3id.org/openeduhub/vocabs/locationType/D2eb8b66-7a56-4210-9f99-195fea13fe3b"], "name": "Karl-Heinz Bode GmbH Baugesch\u00e4ft", "url": "https://www.arbeitsagentur.de/jobsuche/jobdetail/10000-1195238786-S"}, {"description": "Ausbildung zum Maurer (M/W/D)", "location": [{"address": {"addressCountry": "DE", "addressLocality": "Wesseling, Rheinland", "addressRegion": "Nordrhein-Westfalen", "postalCode": "50389", "streetAddress": "Gutenbergstr. 10-12"}, "geo": {"latitude": 50.8326736, "longitude": 6.9561915}}], "additionalType": ["http://w3id.org/openeduhub/vocabs/locationType/D2eb8b66-7a56-4210-9f99-195fea13fe3b"], "name": "Hans Graf Bauunternehmung GmbH & Co. KG", "url": "https://www.arbeitsagentur.de/jobsuche/jobdetail/10000-1195236545-S"}, {"location": [{"address": {"addressCountry": "DE", "addressLocality": "Brackenheim", "addressRegion": "Baden-W\u00fcrttemberg", "postalCode": "74336", "streetAddress": "Daimlerstr. 1"}, "geo": {"latitude": 49.0634136, "longitude": 9.0836647}}], "additionalType": ["http://w3id.org/openeduhub/vocabs/locationType/D2eb8b66-7a56-4210-9f99-195fea13fe3b"], "name": "Albert Amos GmbH & Co.KG Bauunternehmung", "url": "https://www.arbeitsagentur.de/jobsuche/jobdetail/10000-1195236427-S"}, {"description": "SOFORT NOCH STARTEN : Ausbildung Maurer/in, einfach anrufen!", "location": [{"address": {"addressCountry": "DE", "addressLocality": "Barmstedt", "addressRegion": "Schleswig-Holstein", "postalCode": "25355", "streetAddress": "Sandberg 5"}, "geo": {"latitude": 53.7995019, "longitude": 9.7696569}}], "additionalType": ["http://w3id.org/openeduhub/vocabs/locationType/D2eb8b66-7a56-4210-9f99-195fea13fe3b"], "name": "J. Hofmann Bauunternehmen GmbH", "url": "https://www.arbeitsagentur.de/jobsuche/jobdetail/10000-1193440027-S"}, {"description": "Ausbildung 2023 - Maurer/in (m/w/d)", "location": [{"address": {"addressCountry": "DE", "addressLocality": "Burgkunstadt", "addressRegion": "Bayern", "postalCode": "96224", "streetAddress": "Bachgasse 11"}, "geo": {"latitude": 50.1222043, "longitude": 11.3251248}}], "additionalType": ["http://w3id.org/openeduhub/vocabs/locationType/D2eb8b66-7a56-4210-9f99-195fea13fe3b"], "name": "Bernhard G\u00f6hl Hoch- und Tiefbau GmbH", "url": "https://www.arbeitsagentur.de/jobsuche/jobdetail/10000-1191992049-S"}, {"description": "Ausbildung 2023", "location": [{"address": {"addressCountry": "DE", "addressLocality": "W\u00f6rth an der Donau", "addressRegion": "Bayern", "postalCode": "93086", "streetAddress": "Schwarzer Helm 3"}, "geo": {"latitude": 49.0105147, "longitude": 12.4050146}}], "additionalType": ["http://w3id.org/openeduhub/vocabs/locationType/D2eb8b66-7a56-4210-9f99-195fea13fe3b"], "name": "BSB Birchinger Sanieren und Bauen GmbH", "url": "https://www.arbeitsagentur.de/jobsuche/jobdetail/10000-1191858929-S"}, {"description": "Ausbildung 1.8.2024", "location": [{"address": {"addressCountry": "DE", "addressLocality": "Butzbach", "addressRegion": "Hessen", "postalCode": "35510", "streetAddress": "Roter Lohweg 31"}, "geo": {"latitude": 50.4353477, "longitude": 8.6907577}}], "additionalType": ["http://w3id.org/openeduhub/vocabs/locationType/D2eb8b66-7a56-4210-9f99-195fea13fe3b"], "name": "Bill GmbH Bauunternehmung", "url": "https://www.arbeitsagentur.de/jobsuche/jobdetail/10000-1195235211-S"}, {"description": "Ausbildung 1.8.2024", "location": [{"address": {"addressCountry": "DE", "addressLocality": "B\u00fcdingen, Hessen", "addressRegion": "Hessen", "postalCode": "63654", "streetAddress": "Brunnenstr. 5"}, "geo": {"latitude": 50.3092431, "longitude": 9.0866607}}], "additionalType": ["http://w3id.org/openeduhub/vocabs/locationType/D2eb8b66-7a56-4210-9f99-195fea13fe3b"], "name": "Wenzel Bau GmbH", "url": "https://www.arbeitsagentur.de/jobsuche/jobdetail/10000-1195235065-S"}, {"description": "Ausbildung 2024", "location": [{"address": {"addressCountry": "DE", "addressLocality": "Selters (Taunus)", "addressRegion": "Hessen", "postalCode": "65618", "streetAddress": "Brunnenstr. 38"}, "geo": {"latitude": 50.334087, "longitude": 8.225781}}], "additionalType": ["http://w3id.org/openeduhub/vocabs/locationType/D2eb8b66-7a56-4210-9f99-195fea13fe3b"], "name": "Georg Muth GmbH & Co.KG Bauunternehmung", "url": "https://www.arbeitsagentur.de/jobsuche/jobdetail/10000-1195231782-S"}, {"location": [{"address": {"addressCountry": "DE", "addressLocality": "Greding", "addressRegion": "Bayern", "postalCode": "91171", "streetAddress": "Hagenbucher Str. 31"}, "geo": {"latitude": 49.1165888, "longitude": 11.3106718}}], "additionalType": ["http://w3id.org/openeduhub/vocabs/locationType/D2eb8b66-7a56-4210-9f99-195fea13fe3b"], "name": "Max Netter GmbH", "url": "https://www.arbeitsagentur.de/jobsuche/jobdetail/10000-1195230646-S"}, {"description": "Ausbildung 2024", "location": [{"address": {"addressCountry": "DE", "addressLocality": "Weilburg", "addressRegion": "Hessen", "postalCode": "35781", "streetAddress": "Im Vilchen 26a"}, "geo": {"latitude": 50.4836855, "longitude": 8.3579379}}], "additionalType": ["http://w3id.org/openeduhub/vocabs/locationType/D2eb8b66-7a56-4210-9f99-195fea13fe3b"], "name": "Bauunternehmen Stein GmbH & Co. KG", "url": "https://www.arbeitsagentur.de/jobsuche/jobdetail/10000-1195228466-S"}, {"description": "Maurer/in 2024 (m/w/d)", "location": [{"address": {"addressCountry": "DE", "addressLocality": "Sachsenheim, W\u00fcrttemberg", "addressRegion": "Baden-W\u00fcrttemberg", "postalCode": "74343", "streetAddress": "Industriestr. 6"}, "geo": {"latitude": 48.9577352, "longitude": 9.0857073}}], "additionalType": ["http://w3id.org/openeduhub/vocabs/locationType/D2eb8b66-7a56-4210-9f99-195fea13fe3b"], "name": "Spahr-Bau GmbH", "url": "https://www.arbeitsagentur.de/jobsuche/jobdetail/10000-1195226798-S"}, {"description": "Ausbildung 2024", "location": [{"address": {"addressCountry": "DE", "addressLocality": "Herschbach bei Selters, Westerwald", "addressRegion": "Rheinland-Pfalz", "postalCode": "56249", "streetAddress": "Bleichstr. 31"}, "geo": {"latitude": 50.5766309, "longitude": 7.7330017}}], "additionalType": ["http://w3id.org/openeduhub/vocabs/locationType/D2eb8b66-7a56-4210-9f99-195fea13fe3b"], "name": "Dickopf Bau GmbH & Co KG Bauunternehmung", "url": "https://www.arbeitsagentur.de/jobsuche/jobdetail/10000-1195226775-S"}, {"location": [{"address": {"addressCountry": "DE", "addressLocality": "Binsfeld bei Wittlich", "addressRegion": "Rheinland-Pfalz", "postalCode": "54518", "streetAddress": "Neustr. 17"}, "geo": {"latitude": 49.9648529, "longitude": 6.7034608}}], "additionalType": ["http://w3id.org/openeduhub/vocabs/locationType/D2eb8b66-7a56-4210-9f99-195fea13fe3b"], "name": "Nikolaus Neises GmbH & Co. KG", "url": "https://www.arbeitsagentur.de/jobsuche/jobdetail/10000-1195226732-S"}, {"location": [{"address": {"addressCountry": "DE", "addressLocality": "Hirschau, Oberpfalz", "addressRegion": "Bayern", "postalCode": "92242", "streetAddress": "Ehenfeld 50"}, "geo": {"latitude": 49.5777422, "longitude": 11.9390041}}], "additionalType": ["http://w3id.org/openeduhub/vocabs/locationType/D2eb8b66-7a56-4210-9f99-195fea13fe3b"], "name": "Falk Bau GmbH & Co. KG", "url": "https://www.arbeitsagentur.de/jobsuche/jobdetail/10000-1195225321-S"}, {"location": [{"address": {"addressCountry": "DE", "addressLocality": "Gammertingen", "addressRegion": "Baden-W\u00fcrttemberg", "postalCode": "72501", "streetAddress": "Robert-Bosch-Str. 3"}, "geo": {"latitude": 48.2452881, "longitude": 9.2168523}}], "additionalType": ["http://w3id.org/openeduhub/vocabs/locationType/D2eb8b66-7a56-4210-9f99-195fea13fe3b"], "name": "Josef Lieb GmbH Hoch- und Tiefbau", "url": "https://www.arbeitsagentur.de/jobsuche/jobdetail/10000-1195224821-S"}, {"description": "Ausbildung 2023: Maurer (m/w/d)", "location": [{"address": {"addressCountry": "DE", "addressLocality": "Ochsenhausen", "addressRegion": "Baden-W\u00fcrttemberg", "postalCode": "88416", "streetAddress": "Ehinger Str. 65"}, "geo": {"latitude": 48.1097976, "longitude": 9.9373477}}], "additionalType": ["http://w3id.org/openeduhub/vocabs/locationType/D2eb8b66-7a56-4210-9f99-195fea13fe3b"], "name": "Fa.Max Habrik GmbH & Co. KG Bauunternehmen", "url": "https://www.arbeitsagentur.de/jobsuche/jobdetail/10000-1195222890-S"}, {"description": "Maurer/in (m/w/d) Ausbildungsstelle 2024", "location": [{"address": {"addressCountry": "DE", "addressLocality": "Wangen im Allg\u00e4u", "addressRegion": "Baden-W\u00fcrttemberg", "postalCode": "88239", "streetAddress": "Karl-Hirnbein-Str. 23"}, "geo": {"latitude": 47.6924667, "longitude": 9.8293024}}], "additionalType": ["http://w3id.org/openeduhub/vocabs/locationType/D2eb8b66-7a56-4210-9f99-195fea13fe3b"], "name": "Fischbach Bauunternehmen Gerald Fischbach GmbH", "url": "https://www.arbeitsagentur.de/jobsuche/jobdetail/10000-1195221436-S"}, {"description": "Ausbildung 2024: Maurer -Praktikum m\u00f6glich-", "location": [{"address": {"addressCountry": "DE", "addressLocality": "Bocholt", "addressRegion": "Nordrhein-Westfalen", "postalCode": "46395", "streetAddress": "Schersweide 14"}, "geo": {"latitude": 51.836243, "longitude": 6.5982814}}], "additionalType": ["http://w3id.org/openeduhub/vocabs/locationType/D2eb8b66-7a56-4210-9f99-195fea13fe3b"], "name": "I + D Sanierungstechnik GmbH", "url": "https://www.arbeitsagentur.de/jobsuche/jobdetail/10000-1195219412-S"}, {"description": "***Ausbildung 2024***", "location": [{"address": {"addressCountry": "DE", "addressLocality": "Cappeln (Oldenburg)", "addressRegion": "Niedersachsen", "postalCode": "49692", "streetAddress": "Neue Barlage 23"}, "geo": {"latitude": 52.7860251, "longitude": 8.0650117}}], "additionalType": ["http://w3id.org/openeduhub/vocabs/locationType/D2eb8b66-7a56-4210-9f99-195fea13fe3b"], "name": "Witt, Waldemar", "url": "https://www.arbeitsagentur.de/jobsuche/jobdetail/10000-1195217635-S"}, {"description": "Ausbildung 2024", "location": [{"address": {"addressCountry": "DE", "addressLocality": "Crinitz", "addressRegion": "Brandenburg", "postalCode": "03246", "streetAddress": "Triftstr. 3"}, "geo": {"latitude": 51.7396306, "longitude": 13.7633872}}], "additionalType": ["http://w3id.org/openeduhub/vocabs/locationType/D2eb8b66-7a56-4210-9f99-195fea13fe3b"], "name": "Bauservice Dorow Enrico Dorow", "url": "https://www.arbeitsagentur.de/jobsuche/jobdetail/10000-1195084449-S"}, {"description": "** Ausbildung 2023 ** Maurer (m/w/d)", "location": [{"address": {"addressCountry": "DE", "addressLocality": "Ribnitz-Damgarten", "addressRegion": "Mecklenburg-Vorpommern", "postalCode": "18311", "streetAddress": "Am Tannenberg 5"}, "geo": {"latitude": 54.2355696, "longitude": 12.3657171}}], "additionalType": ["http://w3id.org/openeduhub/vocabs/locationType/D2eb8b66-7a56-4210-9f99-195fea13fe3b"], "name": "Claus Wieben Bauunternehmung GmbH & Co. KG", "url": "https://www.arbeitsagentur.de/jobsuche/jobdetail/10000-1193421928-S"}, {"description": "Ausbildungsstelle 2023 Maurer/in (m/w/d)", "location": [{"address": {"addressCountry": "DE", "addressLocality": "Rottenbuch, Oberbayern", "addressRegion": "Bayern", "postalCode": "82401", "streetAddress": "Augustinerstr. 20"}, "geo": {"latitude": 47.7273414, "longitude": 10.966838}}], "additionalType": ["http://w3id.org/openeduhub/vocabs/locationType/D2eb8b66-7a56-4210-9f99-195fea13fe3b"], "name": "Heinrich Heiland GmbH Bauunternehmen", "url": "https://www.arbeitsagentur.de/jobsuche/jobdetail/10000-1193178996-S"}, {"description": "Ausbildungsstelle 2023", "location": [{"address": {"addressCountry": "DE", "addressLocality": "Ottobeuren", "addressRegion": "Bayern", "postalCode": "87724", "streetAddress": "Stephansrieder Str. 4"}, "geo": {"latitude": 47.946911, "longitude": 10.3103921}}], "additionalType": ["http://w3id.org/openeduhub/vocabs/locationType/D2eb8b66-7a56-4210-9f99-195fea13fe3b"], "name": "KNS-Hochbau GmbH", "url": "https://www.arbeitsagentur.de/jobsuche/jobdetail/10000-1191093175-S"}, {"description": "AZUBI Maurer (m/w/d) gesucht", "location": [{"address": {"addressCountry": "DE", "addressLocality": "Wolfenb\u00fcttel, Niedersachsen", "addressRegion": "Niedersachsen", "postalCode": "38302", "streetAddress": "Salzdahlumer Str. 128"}, "geo": {"latitude": 52.1779908, "longitude": 10.5614931}}], "additionalType": ["http://w3id.org/openeduhub/vocabs/locationType/D2eb8b66-7a56-4210-9f99-195fea13fe3b"], "name": "Carl Schumacher GmbH Bauunternehmen", "url": "https://www.arbeitsagentur.de/jobsuche/jobdetail/10000-1191055922-S"}, {"description": "Ausbildung 2023", "location": [{"address": {"addressCountry": "DE", "addressLocality": "Hagen, Westfalen", "addressRegion": "Nordrhein-Westfalen", "postalCode": "58119", "streetAddress": "Berliner Allee 72"}, "geo": {"latitude": 51.3684176, "longitude": 7.580871}}], "additionalType": ["http://w3id.org/openeduhub/vocabs/locationType/D2eb8b66-7a56-4210-9f99-195fea13fe3b"], "name": "Guido L\u00fcbke GmbH & Co. KG Bauunternehmen", "url": "https://www.arbeitsagentur.de/jobsuche/jobdetail/10000-1190903149-S"}, {"description": "**Ausbildung 2023 - Maurer (m/w/d)**", "location": [{"address": {"addressCountry": "DE", "addressLocality": "Weibern, Brohltal", "addressRegion": "Rheinland-Pfalz", "postalCode": "56745", "streetAddress": "Windkaulweg 1"}, "geo": {"latitude": 50.4142249, "longitude": 7.1535536}}], "additionalType": ["http://w3id.org/openeduhub/vocabs/locationType/D2eb8b66-7a56-4210-9f99-195fea13fe3b"], "name": "Augel GmbH", "url": "https://www.arbeitsagentur.de/jobsuche/jobdetail/10000-1190739372-S"}, {"description": "Ausbildung 2023: Maurer (m/w/d)", "location": [{"address": {"addressCountry": "DE", "addressLocality": "Ertingen", "addressRegion": "Baden-W\u00fcrttemberg", "postalCode": "88521", "streetAddress": "Schwarzachstr. 14"}, "geo": {"latitude": 48.0888423, "longitude": 9.462857}}], "additionalType": ["http://w3id.org/openeduhub/vocabs/locationType/D2eb8b66-7a56-4210-9f99-195fea13fe3b"], "name": "Fensterle Bauunternehmen GmbH", "url": "https://www.arbeitsagentur.de/jobsuche/jobdetail/10000-1190533145-S"}, {"description": "Ausbildung 2023", "location": [{"address": {"addressCountry": "DE", "addressLocality": "Doberlug-Kirchhain", "addressRegion": "Brandenburg", "postalCode": "03253", "streetAddress": "S\u00fcdstr. 49f"}, "geo": {"latitude": 51.6276858, "longitude": 13.5845854}}], "additionalType": ["http://w3id.org/openeduhub/vocabs/locationType/D2eb8b66-7a56-4210-9f99-195fea13fe3b"], "name": "ZOBEL & CO Putz- u. Estrich Bau GmbH", "url": "https://www.arbeitsagentur.de/jobsuche/jobdetail/10000-1190374673-S"}, {"description": "Facharbeiter:in Tiefbau / Stahlbau / Betonbau / Maurer:in als Gleisbauer:in", "location": [{"address": {"addressCountry": "DE", "addressLocality": "Kempten (Allg\u00e4u)", "addressRegion": "Bayern", "postalCode": "87435", "streetAddress": ""}, "geo": {"latitude": 47.7123972, "longitude": 10.3030565}}], "additionalType": ["http://w3id.org/openeduhub/vocabs/locationType/D2eb8b66-7a56-4210-9f99-195fea13fe3b"], "name": "DB Netz AG", "url": "https://www.arbeitsagentur.de/jobsuche/jobdetail/11858-4975552-STA-S"}, {"description": "Ausbildung 2023", "location": [{"address": {"addressCountry": "DE", "addressLocality": "Oberstdorf", "addressRegion": "Bayern", "postalCode": "87561", "streetAddress": "Am Gstad 1"}, "geo": {"latitude": 47.4089966, "longitude": 10.2806616}}], "additionalType": ["http://w3id.org/openeduhub/vocabs/locationType/D2eb8b66-7a56-4210-9f99-195fea13fe3b"], "name": "Ferdinand Brutscher GmbH & Co. KG Hoch-und Tiefbau", "url": "https://www.arbeitsagentur.de/jobsuche/jobdetail/10000-1195215800-S"}, {"description": "Ausbildung 2023: Maurer (m/w/d)", "location": [{"address": {"addressCountry": "DE", "addressLocality": "Maselheim", "addressRegion": "Baden-W\u00fcrttemberg", "postalCode": "88437", "streetAddress": "Gartenstr. 5"}, "geo": {"latitude": 48.1348948, "longitude": 9.8813067}}], "additionalType": ["http://w3id.org/openeduhub/vocabs/locationType/D2eb8b66-7a56-4210-9f99-195fea13fe3b"], "name": "H\u00e4rle Hoch- und Tiefbau Betonfertigteile GmbH & Co.KG", "url": "https://www.arbeitsagentur.de/jobsuche/jobdetail/10000-1195214890-S"}, {"description": "Ausbildung Maurer (m/w/d) - 2024", "location": [{"address": {"addressCountry": "DE", "addressLocality": "Pemfling", "addressRegion": "Bayern", "postalCode": "93482", "streetAddress": "Bierlweg 16"}, "geo": {"latitude": 49.2506059, "longitude": 12.6004851}}], "additionalType": ["http://w3id.org/openeduhub/vocabs/locationType/D2eb8b66-7a56-4210-9f99-195fea13fe3b"], "name": "Alt Bau GmbH", "url": "https://www.arbeitsagentur.de/jobsuche/jobdetail/10000-1195214139-S"}, {"location": [{"address": {"addressCountry": "DE", "addressLocality": "Bad Saulgau", "addressRegion": "Baden-W\u00fcrttemberg", "postalCode": "88348", "streetAddress": "Schwarzachstr. 21"}, "geo": {"latitude": 48.0248564, "longitude": 9.4872866}}], "additionalType": ["http://w3id.org/openeduhub/vocabs/locationType/D2eb8b66-7a56-4210-9f99-195fea13fe3b"], "name": "Georg Reisch GmbH & Co.KG Bauunternehmen", "url": "https://www.arbeitsagentur.de/jobsuche/jobdetail/10000-1195214112-S"}, {"description": "Wir suchen dich (m/w/d)!", "location": [{"address": {"addressCountry": "DE", "addressLocality": "R\u00f6ttenbach bei Schwabach", "addressRegion": "Bayern", "postalCode": "91187", "streetAddress": "Metzgersgasse 20"}, "geo": {"latitude": 49.1493128, "longitude": 11.0301413}}], "additionalType": ["http://w3id.org/openeduhub/vocabs/locationType/D2eb8b66-7a56-4210-9f99-195fea13fe3b"], "name": "Kauschka Hoch-Tiefbau GmbH", "url": "https://www.arbeitsagentur.de/jobsuche/jobdetail/10000-1195210798-S"}, {"description": "Wir suchen dich ( m/w/d)!", "location": [{"address": {"addressCountry": "DE", "addressLocality": "Abenberg, Mittelfranken", "addressRegion": "Bayern", "postalCode": "91183", "streetAddress": "Spalter Str. 56"}, "geo": {"latitude": 49.2358725, "longitude": 10.9559854}}], "additionalType": ["http://w3id.org/openeduhub/vocabs/locationType/D2eb8b66-7a56-4210-9f99-195fea13fe3b"], "name": "Hans Gs\u00e4nger Baugesch\u00e4ft Christian Schlegl", "url": "https://www.arbeitsagentur.de/jobsuche/jobdetail/10000-1195208965-S"}, {"description": "Maurer/in (m/w/d)", "location": [{"address": {"addressCountry": "DE", "addressLocality": "Kinding", "addressRegion": "Bayern", "postalCode": "85125", "streetAddress": "Jurastr. 29"}, "geo": {"latitude": 49.00095, "longitude": 11.3850214}}], "additionalType": ["http://w3id.org/openeduhub/vocabs/locationType/D2eb8b66-7a56-4210-9f99-195fea13fe3b"], "name": "R. Werner Bau GmbH Baugesch\u00e4ft", "url": "https://www.arbeitsagentur.de/jobsuche/jobdetail/10000-1195208880-S"}, {"description": "Schulpraktika sind m\u00f6glich", "location": [{"address": {"addressCountry": "DE", "addressLocality": "Blomberg, Lippe", "addressRegion": "Nordrhein-Westfalen", "postalCode": "32825", "streetAddress": "Am Diestelbach 19"}, "geo": {"latitude": 51.9312793, "longitude": 9.0972704}}], "additionalType": ["http://w3id.org/openeduhub/vocabs/locationType/D2eb8b66-7a56-4210-9f99-195fea13fe3b"], "name": "Baugesch\u00e4ft J\u00fcrgen Mengedoht", "url": "https://www.arbeitsagentur.de/jobsuche/jobdetail/10000-1195208230-S"}, {"description": "Ausbildung zum Maurer (m/w/d) *2024*", "location": [{"address": {"addressCountry": "DE", "addressLocality": "Rohr, Mittelfranken", "addressRegion": "Bayern", "postalCode": "91189", "streetAddress": "Steiner Str. 23"}, "geo": {"latitude": 49.3752648, "longitude": 10.9817802}}], "additionalType": ["http://w3id.org/openeduhub/vocabs/locationType/D2eb8b66-7a56-4210-9f99-195fea13fe3b"], "name": "Bauunternehmung Bernhard Lehnert", "url": "https://www.arbeitsagentur.de/jobsuche/jobdetail/10000-1195206005-S"}, {"description": "Maurer m/w/d", "location": [{"address": {"addressCountry": "DE", "addressLocality": "Wunsiedel", "addressRegion": "Bayern", "postalCode": "95632", "streetAddress": "Hornschuchstr. 22"}, "geo": {"latitude": 50.0384857, "longitude": 12.0110951}}], "additionalType": ["http://w3id.org/openeduhub/vocabs/locationType/D2eb8b66-7a56-4210-9f99-195fea13fe3b"], "name": "Karl Roth, Baumeister GmbH & Co KG", "url": "https://www.arbeitsagentur.de/jobsuche/jobdetail/10000-1195205483-S"}, {"location": [{"address": {"addressCountry": "DE", "addressLocality": "Bruchsal", "addressRegion": "Baden-W\u00fcrttemberg", "postalCode": "76646", "streetAddress": "Mergelgrube 3"}, "geo": {"latitude": 49.0895059, "longitude": 8.6402968}}], "additionalType": ["http://w3id.org/openeduhub/vocabs/locationType/D2eb8b66-7a56-4210-9f99-195fea13fe3b"], "name": "Dipl.Ing.H.Vollmer & Co Bau GmbH", "url": "https://www.arbeitsagentur.de/jobsuche/jobdetail/10000-1195204272-S"}, {"description": "Ausbildung 2024 Maurer (m/w/d)", "location": [{"address": {"addressCountry": "DE", "addressLocality": "Besigheim", "addressRegion": "Baden-W\u00fcrttemberg", "postalCode": "74354", "streetAddress": "Friedrichstr. 15"}, "geo": {"latitude": 48.9964627, "longitude": 9.147828}}], "additionalType": ["http://w3id.org/openeduhub/vocabs/locationType/D2eb8b66-7a56-4210-9f99-195fea13fe3b"], "name": "Friedrich K\u00f6hler GmbH & Co.KG", "url": "https://www.arbeitsagentur.de/jobsuche/jobdetail/10000-1195203475-S"}, {"location": [{"address": {"addressCountry": "DE", "addressLocality": "Hohenburg, Oberpfalz", "addressRegion": "Bayern", "postalCode": "92277", "streetAddress": "Allersburg 4a"}, "geo": {"latitude": 49.3081967, "longitude": 11.780967}}], "additionalType": ["http://w3id.org/openeduhub/vocabs/locationType/D2eb8b66-7a56-4210-9f99-195fea13fe3b"], "name": "Weigert Bauunternehmen Baustoffe GmbH", "url": "https://www.arbeitsagentur.de/jobsuche/jobdetail/10000-1195203047-S"}, {"description": "Ausbildung 2023", "location": [{"address": {"addressCountry": "DE", "addressLocality": "Lahr, Schwarzwald", "addressRegion": "Baden-W\u00fcrttemberg", "postalCode": "77933", "streetAddress": "Breitmatten 40"}, "geo": {"latitude": 48.3370744, "longitude": 7.9060234}}], "additionalType": ["http://w3id.org/openeduhub/vocabs/locationType/D2eb8b66-7a56-4210-9f99-195fea13fe3b"], "name": "Hochbau Philipp Weber Maurer-& Betonbauermeister", "url": "https://www.arbeitsagentur.de/jobsuche/jobdetail/10000-1194798533-S"}, {"description": "Ausbildung Maurer (m/w/d) 2024", "location": [{"address": {"addressCountry": "DE", "addressLocality": "Dillingen an der Donau", "addressRegion": "Bayern", "postalCode": "89407", "streetAddress": "Pfalz-Neuburg-Str. 34"}, "geo": {"latitude": 48.5988461, "longitude": 10.5429117}}], "additionalType": ["http://w3id.org/openeduhub/vocabs/locationType/D2eb8b66-7a56-4210-9f99-195fea13fe3b"], "name": "Mayerle Bauunternehmen GmbH", "url": "https://www.arbeitsagentur.de/jobsuche/jobdetail/10000-1194399161-S"}, {"description": "Ausbildungsstelle 2023", "location": [{"address": {"addressCountry": "DE", "addressLocality": "Memmingen", "addressRegion": "Bayern", "postalCode": "87700", "streetAddress": "Husarenstr. 9"}, "geo": {"latitude": 48.0162929, "longitude": 10.1569018}}], "additionalType": ["http://w3id.org/openeduhub/vocabs/locationType/D2eb8b66-7a56-4210-9f99-195fea13fe3b"], "name": "Rehklau GmbH Zimmerei-Holzbau-Baugesch\u00e4ft", "url": "https://www.arbeitsagentur.de/jobsuche/jobdetail/10000-1191147500-S"}, {"description": "Ausbildung Maurer (m/w/d) 2023", "location": [{"address": {"addressCountry": "DE", "addressLocality": "Dillingen an der Donau", "addressRegion": "Bayern", "postalCode": "89407", "streetAddress": "Pfalz-Neuburg-Str. 34"}, "geo": {"latitude": 48.5988461, "longitude": 10.5429117}}], "additionalType": ["http://w3id.org/openeduhub/vocabs/locationType/D2eb8b66-7a56-4210-9f99-195fea13fe3b"], "name": "Mayerle Bauunternehmen GmbH", "url": "https://www.arbeitsagentur.de/jobsuche/jobdetail/10000-1191105177-S"}, {"description": "Ausbildung zum/zur Maurer/-in (m/w/d)", "location": [{"address": {"addressCountry": "DE", "addressLocality": "Wolfenb\u00fcttel, Niedersachsen", "addressRegion": "Niedersachsen", "postalCode": "38304", "streetAddress": "Adersheimer Str. 59 - 61"}, "geo": {"latitude": 52.1578318, "longitude": 10.5107101}}], "additionalType": ["http://w3id.org/openeduhub/vocabs/locationType/D2eb8b66-7a56-4210-9f99-195fea13fe3b"], "name": "K\u00fcmper + Schwarze Baubetriebe GmbH", "url": "https://www.arbeitsagentur.de/jobsuche/jobdetail/10000-1187190374-S"}, {"description": "Ausbildung zum Maurer/Beton- und Stahlbetonarbeiter (m/w/...", "location": [{"address": {"addressCountry": "DE", "addressLocality": "Kassel, Hessen", "addressRegion": "Hessen", "postalCode": "34125", "streetAddress": "Wilhelm-Speck-Str. 17"}, "geo": {"latitude": 51.3244729, "longitude": 9.5187344}}], "additionalType": ["http://w3id.org/openeduhub/vocabs/locationType/D2eb8b66-7a56-4210-9f99-195fea13fe3b"], "name": "HERMANNS AG", "url": "https://www.arbeitsagentur.de/jobsuche/jobdetail/15537-JOB-116480-S"}, {"location": [{"address": {"addressCountry": "DE", "addressLocality": "\u00d6stringen", "addressRegion": "Baden-W\u00fcrttemberg", "postalCode": "76684", "streetAddress": "Justus-von-Liebig-Str. 4"}, "geo": {"latitude": 49.2163712, "longitude": 8.6978639}}], "additionalType": ["http://w3id.org/openeduhub/vocabs/locationType/D2eb8b66-7a56-4210-9f99-195fea13fe3b"], "name": "W. Mayer Baugesellschaft mbH", "url": "https://www.arbeitsagentur.de/jobsuche/jobdetail/10000-1195199713-S"}, {"description": "Ausbildung 2024 - Praktikum m\u00f6glich", "location": [{"address": {"addressCountry": "DE", "addressLocality": "Willebadessen", "addressRegion": "Nordrhein-Westfalen", "postalCode": "34439", "streetAddress": "L\u00fctzer Str. 34"}, "geo": {"latitude": 51.6038446, "longitude": 9.1330945}}], "additionalType": ["http://w3id.org/openeduhub/vocabs/locationType/D2eb8b66-7a56-4210-9f99-195fea13fe3b"], "name": "SR Massivbau-Bautr\u00e4ger GmbH", "url": "https://www.arbeitsagentur.de/jobsuche/jobdetail/10000-1195198523-S"}, {"description": "Ausbildung 2024", "location": [{"address": {"addressCountry": "DE", "addressLocality": "Hermsdorf bei Ruhland", "addressRegion": "Brandenburg", "postalCode": "01945", "streetAddress": "Ortrander Str. 6"}, "geo": {"latitude": 51.3969302, "longitude": 13.8500529}}], "additionalType": ["http://w3id.org/openeduhub/vocabs/locationType/D2eb8b66-7a56-4210-9f99-195fea13fe3b"], "name": "Neu- und Ausbau Kittner GmbH", "url": "https://www.arbeitsagentur.de/jobsuche/jobdetail/10000-1195197756-S"}, {"description": "Ausbildungsplatz als Maurer/in (m/w/d) zum 01.08.2024 Praktikum m\u00f6glich", "location": [{"address": {"addressCountry": "DE", "addressLocality": "Steinhagen, Westfalen", "addressRegion": "Nordrhein-Westfalen", "postalCode": "33803", "streetAddress": "Bielefelder Str. 70"}, "geo": {"latitude": 52.0112329, "longitude": 8.4375321}}], "additionalType": ["http://w3id.org/openeduhub/vocabs/locationType/D2eb8b66-7a56-4210-9f99-195fea13fe3b"], "name": "Baugesellschaft Twelmeier mbH", "url": "https://www.arbeitsagentur.de/jobsuche/jobdetail/10000-1195196530-S"}, {"description": "Ausbildung 2024 - Maurer m/w/d -Praktikum m\u00f6glich-", "location": [{"address": {"addressCountry": "DE", "addressLocality": "Legden", "addressRegion": "Nordrhein-Westfalen", "postalCode": "48739", "streetAddress": "Neue M\u00fchle 9"}, "geo": {"latitude": 52.0437579, "longitude": 7.0941353}}], "additionalType": ["http://w3id.org/openeduhub/vocabs/locationType/D2eb8b66-7a56-4210-9f99-195fea13fe3b"], "name": "Bogenstahl Bauunternehmen GmbH Hochbau - Tiefbau", "url": "https://www.arbeitsagentur.de/jobsuche/jobdetail/10000-1195193052-S"}, {"description": "Ausbildung 2024", "location": [{"address": {"addressCountry": "DE", "addressLocality": "Gro\u00dfheide, Ostfriesland", "addressRegion": "Niedersachsen", "postalCode": "26532", "streetAddress": "Gewerbestr. 2"}, "geo": {"latitude": 53.5655373, "longitude": 7.3626635}}], "additionalType": ["http://w3id.org/openeduhub/vocabs/locationType/D2eb8b66-7a56-4210-9f99-195fea13fe3b"], "name": "Walter de Groot GmbH & Co. KG Bauunternehmung", "url": "https://www.arbeitsagentur.de/jobsuche/jobdetail/10000-1195191541-S"}, {"description": "*** Ausbildung 2024 ***", "location": [{"address": {"addressCountry": "DE", "addressLocality": "Elzach", "addressRegion": "Baden-W\u00fcrttemberg", "postalCode": "79215", "streetAddress": "Im Untertal 4"}, "geo": {"latitude": 48.1628864, "longitude": 8.0835711}}], "additionalType": ["http://w3id.org/openeduhub/vocabs/locationType/D2eb8b66-7a56-4210-9f99-195fea13fe3b"], "name": "Sigmund Burger Bauunternehmen GmbH", "url": "https://www.arbeitsagentur.de/jobsuche/jobdetail/10000-1195188731-S"}, {"description": "Maurer m/w/d 2024", "location": [{"address": {"addressCountry": "DE", "addressLocality": "Schaafheim", "addressRegion": "Hessen", "postalCode": "64850", "streetAddress": "Schaafheimer Str. 5"}, "geo": {"latitude": 49.9122401, "longitude": 8.9738516}}], "additionalType": ["http://w3id.org/openeduhub/vocabs/locationType/D2eb8b66-7a56-4210-9f99-195fea13fe3b"], "name": "Norbert Lindt GmbH Bauunternehmung", "url": "https://www.arbeitsagentur.de/jobsuche/jobdetail/10000-1195187441-S"}, {"description": "Ausbildung 2024 oder zu sofort Maurer (w/m/d)", "location": [{"address": {"addressCountry": "DE", "addressLocality": "B\u00fcren, Westfalen", "addressRegion": "Nordrhein-Westfalen", "postalCode": "33142", "streetAddress": "M\u00fchlenberg 3"}, "geo": {"latitude": 51.5229594, "longitude": 8.5363301}}], "additionalType": ["http://w3id.org/openeduhub/vocabs/locationType/D2eb8b66-7a56-4210-9f99-195fea13fe3b"], "name": "Jan Dahlhoff Bau GmbH & Co. KG", "url": "https://www.arbeitsagentur.de/jobsuche/jobdetail/10000-1195183697-S"}, {"description": "Ausbildung zum Maurer (m/w/d) ab 01.09.2024", "location": [{"address": {"addressCountry": "DE", "addressLocality": "Wendelstein, Mittelfranken", "addressRegion": "Bayern", "postalCode": "90530", "streetAddress": "Rother Str. 41"}, "geo": {"latitude": 49.3411667, "longitude": 11.1132832}}], "additionalType": ["http://w3id.org/openeduhub/vocabs/locationType/D2eb8b66-7a56-4210-9f99-195fea13fe3b"], "name": "Bauunternehmen Bernd Witmann", "url": "https://www.arbeitsagentur.de/jobsuche/jobdetail/10000-1195182005-S"}, {"location": [{"address": {"addressCountry": "DE", "addressLocality": "Hohentengen bei Bad Saulgau", "addressRegion": "Baden-W\u00fcrttemberg", "postalCode": "88367", "streetAddress": "Kolpingstr. 3"}, "geo": {"latitude": 48.0113233, "longitude": 9.3861949}}], "additionalType": ["http://w3id.org/openeduhub/vocabs/locationType/D2eb8b66-7a56-4210-9f99-195fea13fe3b"], "name": "Georg Schuler Baugesch\u00e4ft", "url": "https://www.arbeitsagentur.de/jobsuche/jobdetail/10000-1195181562-S"}, {"description": "Ausbildung 2023 -Praktikum m\u00f6glich", "location": [{"address": {"addressCountry": "DE", "addressLocality": "Bedburg, Erft", "addressRegion": "Nordrhein-Westfalen", "postalCode": "50181", "streetAddress": "Im Hamm 6"}, "geo": {"latitude": 51.003454, "longitude": 6.5364078}}], "additionalType": ["http://w3id.org/openeduhub/vocabs/locationType/D2eb8b66-7a56-4210-9f99-195fea13fe3b"], "name": "Becker Bau GmbH Hochbau", "url": "https://www.arbeitsagentur.de/jobsuche/jobdetail/10000-1192251234-S"}, {"description": "Maurer-Azubi (m/w/d) in Zwickau gesucht", "location": [{"address": {"addressCountry": "DE", "addressLocality": "Zwickau", "addressRegion": "Sachsen", "postalCode": "08056", "streetAddress": "Hofleite 15"}, "geo": {"latitude": 50.6958522, "longitude": 12.50786}}], "additionalType": ["http://w3id.org/openeduhub/vocabs/locationType/D2eb8b66-7a56-4210-9f99-195fea13fe3b"], "name": "Sch\u00f6pe Baubetreuung", "url": "https://www.arbeitsagentur.de/jobsuche/jobdetail/10000-1191644894-S"}, {"description": "Facharbeiter:in Tiefbau / Stahlbau / Betonbau / Maurer", "location": [{"address": {"addressCountry": "DE", "addressLocality": "Hamburg", "addressRegion": "Hamburg", "postalCode": "20095", "streetAddress": ""}, "geo": {"latitude": 53.55067, "longitude": 9.9997397}}], "additionalType": ["http://w3id.org/openeduhub/vocabs/locationType/D2eb8b66-7a56-4210-9f99-195fea13fe3b"], "name": "DB Netz AG", "url": "https://www.arbeitsagentur.de/jobsuche/jobdetail/11858-4910905-STA-S"}, {"location": [{"address": {"addressCountry": "DE", "addressLocality": "Ramsau bei Berchtesgaden", "addressRegion": "Bayern", "postalCode": "83486", "streetAddress": "Im Tal 63-65"}, "geo": {"latitude": 47.6074839, "longitude": 12.8982862}}], "additionalType": ["http://w3id.org/openeduhub/vocabs/locationType/D2eb8b66-7a56-4210-9f99-195fea13fe3b"], "name": "Grassl Bau GmbH & Co. KG", "url": "https://www.arbeitsagentur.de/jobsuche/jobdetail/10000-1195180008-S"}, {"description": "***Ausbildungspl\u00e4tze - jetzt f\u00fcr 2024 bewerben***", "location": [{"address": {"addressCountry": "DE", "addressLocality": "Schl\u00fcchtern", "addressRegion": "Hessen", "postalCode": "36381", "streetAddress": "Gartenstr. 44"}, "geo": {"latitude": 50.3528624, "longitude": 9.5328926}}], "additionalType": ["http://w3id.org/openeduhub/vocabs/locationType/D2eb8b66-7a56-4210-9f99-195fea13fe3b"], "name": "J\u00f6kel Bau GmbH & Co. KG", "url": "https://www.arbeitsagentur.de/jobsuche/jobdetail/10000-1195175899-S"}, {"description": "Ausbildung 2024", "location": [{"address": {"addressCountry": "DE", "addressLocality": "Offenbach-Hundheim", "addressRegion": "Rheinland-Pfalz", "postalCode": "67749", "streetAddress": "Am Kreuz 41"}, "geo": {"latitude": 49.6260786, "longitude": 7.5615853}}], "additionalType": ["http://w3id.org/openeduhub/vocabs/locationType/D2eb8b66-7a56-4210-9f99-195fea13fe3b"], "name": "Dautermann Bauunternehmen GmbH", "url": "https://www.arbeitsagentur.de/jobsuche/jobdetail/10000-1195174921-S"}, {"description": "* Ausbildung Maurer (m/w/d) 2024 * - Praktikum m\u00f6glich -", "location": [{"address": {"addressCountry": "DE", "addressLocality": "Legden", "addressRegion": "Nordrhein-Westfalen", "postalCode": "48739", "streetAddress": "Steinkuhle 15"}, "geo": {"latitude": 52.0494246, "longitude": 7.1064243}}], "additionalType": ["http://w3id.org/openeduhub/vocabs/locationType/D2eb8b66-7a56-4210-9f99-195fea13fe3b"], "name": "Bauunternehmung Scharlau GmbH & Co KG", "url": "https://www.arbeitsagentur.de/jobsuche/jobdetail/10000-1195172611-S"}, {"description": "Ausbildung 2024 - Maurer/in (m/w/d) - Praktikum m\u00f6glich", "location": [{"address": {"addressCountry": "DE", "addressLocality": "Ahaus", "addressRegion": "Nordrhein-Westfalen", "postalCode": "48683", "streetAddress": "Einsteinstr. 17"}, "geo": {"latitude": 52.0773609, "longitude": 7.0254677}}], "additionalType": ["http://w3id.org/openeduhub/vocabs/locationType/D2eb8b66-7a56-4210-9f99-195fea13fe3b"], "name": "Bauunternehmung Elpers GmbH & Co. KG", "url": "https://www.arbeitsagentur.de/jobsuche/jobdetail/10000-1195171922-S"}, {"description": "*Ausbildung 2024*", "location": [{"address": {"addressCountry": "DE", "addressLocality": "Harmsdorf, Holstein", "addressRegion": "Schleswig-Holstein", "postalCode": "23738", "streetAddress": "Hauptstr. 47"}, "geo": {"latitude": 54.2428685, "longitude": 10.8288633}}], "additionalType": ["http://w3id.org/openeduhub/vocabs/locationType/D2eb8b66-7a56-4210-9f99-195fea13fe3b"], "name": "Nittritz Baugesellschaft mbH", "url": "https://www.arbeitsagentur.de/jobsuche/jobdetail/10000-1195171596-S"}, {"description": "Ausbildung 2024: Maurer (m/w/d) -Praktikum m\u00f6glich-", "location": [{"address": {"addressCountry": "DE", "addressLocality": "Bocholt", "addressRegion": "Nordrhein-Westfalen", "postalCode": "46395", "streetAddress": "Im Fisserhook 18"}, "geo": {"latitude": 51.814825, "longitude": 6.5758062}}], "additionalType": ["http://w3id.org/openeduhub/vocabs/locationType/D2eb8b66-7a56-4210-9f99-195fea13fe3b"], "name": "Te Strote GmbH & Co. KG", "url": "https://www.arbeitsagentur.de/jobsuche/jobdetail/10000-1195170636-S"}, {"description": "Maurer/in (m/w/d) - Ausbildung 2024 Praktikum m\u00f6glich", "location": [{"address": {"addressCountry": "DE", "addressLocality": "Versmold", "addressRegion": "Nordrhein-Westfalen", "postalCode": "33775", "streetAddress": "Casumer Str. 38"}, "geo": {"latitude": 52.044224, "longitude": 8.2484654}}], "additionalType": ["http://w3id.org/openeduhub/vocabs/locationType/D2eb8b66-7a56-4210-9f99-195fea13fe3b"], "name": "H.Bau-Team GmbH", "url": "https://www.arbeitsagentur.de/jobsuche/jobdetail/10000-1195170541-S"}, {"location": [{"address": {"addressCountry": "DE", "addressLocality": "Ebersburg", "addressRegion": "Hessen", "postalCode": "36157", "streetAddress": "Schmalnauer Weg 10"}, "geo": {"latitude": 50.4569746, "longitude": 9.7719523}}], "additionalType": ["http://w3id.org/openeduhub/vocabs/locationType/D2eb8b66-7a56-4210-9f99-195fea13fe3b"], "name": "Timo Baier", "url": "https://www.arbeitsagentur.de/jobsuche/jobdetail/10000-1195169446-S"}, {"description": "Ausbildung 2024: -Praktikum m\u00f6glich-", "location": [{"address": {"addressCountry": "DE", "addressLocality": "Bocholt", "addressRegion": "Nordrhein-Westfalen", "postalCode": "46395", "streetAddress": "Im Fisserhook 20"}, "geo": {"latitude": 51.8145804, "longitude": 6.5760306}}], "additionalType": ["http://w3id.org/openeduhub/vocabs/locationType/D2eb8b66-7a56-4210-9f99-195fea13fe3b"], "name": "ASF Hochbau GmbH", "url": "https://www.arbeitsagentur.de/jobsuche/jobdetail/10000-1195168226-S"}, {"description": "** Ausbildung 2024 **", "location": [{"address": {"addressCountry": "DE", "addressLocality": "Bakum, Kreis Vechta", "addressRegion": "Niedersachsen", "postalCode": "49456", "streetAddress": "Essener Str. 45A"}, "geo": {"latitude": 52.7325833, "longitude": 8.0812279}}], "additionalType": ["http://w3id.org/openeduhub/vocabs/locationType/D2eb8b66-7a56-4210-9f99-195fea13fe3b"], "name": "Rudolf Ruhe GmbH", "url": "https://www.arbeitsagentur.de/jobsuche/jobdetail/10000-1195167980-S"}, {"description": "2024- Praktikum m\u00f6glich", "location": [{"address": {"addressCountry": "DE", "addressLocality": "Olpe, Biggesee", "addressRegion": "Nordrhein-Westfalen", "postalCode": "57462", "streetAddress": "Oberveischeder Str. 8"}, "geo": {"latitude": 51.0760752, "longitude": 7.9467616}}], "additionalType": ["http://w3id.org/openeduhub/vocabs/locationType/D2eb8b66-7a56-4210-9f99-195fea13fe3b"], "name": "Ludwig Sabisch Bauunternehmung GmbH & Co KG", "url": "https://www.arbeitsagentur.de/jobsuche/jobdetail/10000-1195167769-S"}, {"location": [{"address": {"addressCountry": "DE", "addressLocality": "Burladingen", "addressRegion": "Baden-W\u00fcrttemberg", "postalCode": "72393", "streetAddress": "Steinbraike 2"}, "geo": {"latitude": 48.3629238, "longitude": 9.1443045}}], "additionalType": ["http://w3id.org/openeduhub/vocabs/locationType/D2eb8b66-7a56-4210-9f99-195fea13fe3b"], "name": "Wahl Bauunternehmung GmbH", "url": "https://www.arbeitsagentur.de/jobsuche/jobdetail/10000-1195165827-S"}, {"description": "**Ausbildung 2024** in Steinheim - Praktikum m\u00f6glich", "location": [{"address": {"addressCountry": "DE", "addressLocality": "Steinheim, Westfalen", "addressRegion": "Nordrhein-Westfalen", "postalCode": "32839", "streetAddress": "A-v-Droste-H\u00fclshf-Str 21 a"}, "geo": {"latitude": 51.8448736, "longitude": 9.0657177}}], "additionalType": ["http://w3id.org/openeduhub/vocabs/locationType/D2eb8b66-7a56-4210-9f99-195fea13fe3b"], "name": "Alexander Kulik Bauunternehmung", "url": "https://www.arbeitsagentur.de/jobsuche/jobdetail/10000-1195164138-S"}, {"description": "*Ausbildung 2024*", "location": [{"address": {"addressCountry": "DE", "addressLocality": "Holdorf, Niedersachsen", "addressRegion": "Niedersachsen", "postalCode": "49451", "streetAddress": "Dammer Str. 49"}, "geo": {"latitude": 52.5765105, "longitude": 8.1346039}}], "additionalType": ["http://w3id.org/openeduhub/vocabs/locationType/D2eb8b66-7a56-4210-9f99-195fea13fe3b"], "name": "F.J. Kreinest GmbH Bauunternehmen", "url": "https://www.arbeitsagentur.de/jobsuche/jobdetail/10000-1195163771-S"}, {"description": "Ausbildung 2023", "location": [{"address": {"addressCountry": "DE", "addressLocality": "Dillingen, Saar", "addressRegion": "Saarland", "postalCode": "66763", "streetAddress": "Berliner Str. 6"}, "geo": {"latitude": 49.3628285, "longitude": 6.7160086}}], "additionalType": ["http://w3id.org/openeduhub/vocabs/locationType/D2eb8b66-7a56-4210-9f99-195fea13fe3b"], "name": "HW Bau GmbH", "url": "https://www.arbeitsagentur.de/jobsuche/jobdetail/10000-1194677862-S"}, {"description": "Ausbildung bei Rick - Die Baumeister", "location": [{"address": {"addressCountry": "DE", "addressLocality": "Burgbrohl", "addressRegion": "Rheinland-Pfalz", "postalCode": "56659", "streetAddress": "Gleeser Str. 20"}, "geo": {"latitude": 50.4554225, "longitude": 7.27649}}], "additionalType": ["http://w3id.org/openeduhub/vocabs/locationType/D2eb8b66-7a56-4210-9f99-195fea13fe3b"], "name": "Klaus Rick GmbH & Co. KG Bauunternehmung", "url": "https://www.arbeitsagentur.de/jobsuche/jobdetail/10000-1192119164-S"}, {"description": "** Ausbildung 2023**", "location": [{"address": {"addressCountry": "DE", "addressLocality": "Bremen", "addressRegion": "Bremen", "postalCode": "28219", "streetAddress": "Bernauer Str. 7"}, "geo": {"latitude": 53.1093511, "longitude": 8.8035201}}], "additionalType": ["http://w3id.org/openeduhub/vocabs/locationType/D2eb8b66-7a56-4210-9f99-195fea13fe3b"], "name": "Wilhelm Grotkop GmbH & Co KG Stahlbeton-Hoch-u Tiefbau", "url": "https://www.arbeitsagentur.de/jobsuche/jobdetail/10000-1191384917-S"}]