[{"location": [{"address": {"addressCountry": "DE", "addressLocality": "G\u00f6\u00dfweinstein", "addressRegion": "Bayern", "postalCode": "91327", "streetAddress": "Pezoldstr. 34"}, "geo": {"latitude": 49.7668766, "longitude": 11.3323081}}], "additionalType": ["http://w3id.org/openeduhub/vocabs/locationType/D2eb8b66-7a56-4210-9f99-195fea13fe3b"], "name": "G\u00e4rtnerei Harald Wiedow", "url": "https://www.arbeitsagentur.de/jobsuche/jobdetail/10000-1194728535-S"}, {"location": [{"address": {"addressCountry": "DE", "addressLocality": "Pastetten", "addressRegion": "Bayern", "postalCode": "85669", "streetAddress": "Pfarrer-Riedmaier-Str. 11"}, "geo": {"latitude": 48.2035261, "longitude": 11.9653795}}], "additionalType": ["http://w3id.org/openeduhub/vocabs/locationType/D2eb8b66-7a56-4210-9f99-195fea13fe3b"], "name": "Christoph Gilgen-Kunzlmann Bamdeife", "url": "https://www.arbeitsagentur.de/jobsuche/jobdetail/10000-1192456098-S"}, {"location": [{"address": {"addressCountry": "DE", "addressLocality": "G\u00f6\u00dfweinstein", "addressRegion": "Bayern", "postalCode": "91327", "streetAddress": "Pezoldstr. 34"}, "geo": {"latitude": 49.7668766, "longitude": 11.3323081}}], "additionalType": ["http://w3id.org/openeduhub/vocabs/locationType/D2eb8b66-7a56-4210-9f99-195fea13fe3b"], "name": "G\u00e4rtnerei Harald Wiedow", "url": "https://www.arbeitsagentur.de/jobsuche/jobdetail/10000-1192087370-S"}, {"description": "Ausbildung 2023", "location": [{"address": {"addressCountry": "DE", "addressLocality": "Rostock", "addressRegion": "Mecklenburg-Vorpommern", "postalCode": "18069", "streetAddress": "Schutower Ringstr. 10"}, "geo": {"latitude": 54.1088061, "longitude": 12.0701313}}], "additionalType": ["http://w3id.org/openeduhub/vocabs/locationType/D2eb8b66-7a56-4210-9f99-195fea13fe3b"], "name": "Alpina AG NL Rostock", "url": "https://www.arbeitsagentur.de/jobsuche/jobdetail/10000-1191287035-S"}]